~Version Information Block
VERS .                  2.0:  CWLS LOG ASCII STANDARD - VERSION 2.0
WRAP .                  YES:  Multiple lines per depth step
~Well Information Block
#MNEM.UNIT        Data Type   Information
#---------- ----------------  -----------
STRT .FT            4000.00:  START DEPTH
STOP .FT            5000.00:  STOP DEPTH
STEP .FT               0.50:  STEP
NULL .              -999.25:  NULL VALUE
COMP .     PENNZOIL EXPLORATION & PRODUCTION COMPANY:  COMPANY
WELL .              EXAMPLE:  WELL
FLD  .     EUGENE ISLAND BLOCK 330:  FIELD
LOC  .     5150 FSL & 8006 FEL:  LOCATION
CTRY .                  USA:  COUNTRY
STAT .            LOUISIANA:  STATE
CNTY .             OFFSHORE:  COUNTY
SRVC .         PetCom, Inc.:  SERVICE COMPANY
DATE .     14-MAR-96 @ 10:58:58:  DATE
API  .                     :  API NUMBER
UWI  .                     :  UNIQUE WELL ID
~Curve Information Block
#MNEM.UNIT         API CODE   Curve Description
#---------- ----------------  -----------------
DEPTH.FT                   :  
BS   .IN                   :  10
BVI  .V/V                  :  MBVI/100
BVW  .V/V                  :  SW*MPHI/100
CALI .IN                   :  
CBW  .V/V                  :  Clay-Bound Water
DRHO .G/C3                 :  
DT   .USEC/F                 :  
FFI  .V/V                  :  MFFI/100
GR   .GAPI                 :  
ILD  .OHMM                 :  
ILM  .OHMM                 :  
MBVI .V/V                  :  MBVI/100
MFFI .%                  PU:  
MFFI .%                    :  MFFI/100
MFFI .V/V                  :  MFFI/100
MGR  .GAPI              CPS:  
MGR  .                     :  
MNA  .                     :  m* apparent,  valid in wet intervals for m* trend
MPERM.MD                 MD:  
MPHI .V/V                  :  MPHI/100
NPHI .V/V                  :  
P1   .%                  PU:  
P2   .%                  PU:  
P3   .%                  PU:  
P4   .%                  PU:  
P5   .%                  PU:  
P6   .%                  PU:  
P7   .%                  PU:  
P8   .%                  PU:  
PEF  .B/E                  :  
PHIX .V/V                  :  
RHOB .G/C3                 :  
RMLL .OHMM                 :  
SP   .MV                   :  
SW   .V/V                  :  
T2_DIST.MSEC                 :  NMR T2 DISTRIBUTION
VSH  .V/V                  :  Volume of Shale used in Analysis
~Other Information Block
~Ascii Log Data
# ...
       4742.00 
       10.0000       0.227900       0.259140        10.5050      0.0529006 
    -0.0070000        66.3610       0.031240        66.3610         0.2900 
        0.3140       0.227900         3.1240         3.1240       0.031240 
       86.6550        85.6130         2.2445         7.2331       0.259140 
      0.369820        12.8990         0.9130         8.9790         2.1870 
        0.0000         0.0000         0.0000         0.9370         3.4180 
      0.335445         2.2260         0.4130       -20.7500         1.0000 
        0.0000         0.3459
       4742.50 
       10.0000       0.218180       0.258580        10.3207      0.0646513 
    -0.0043000        64.8637       0.040400        64.8637         0.3010 
        0.3270       0.218180         4.0400         4.0400       0.040400 
       86.3450        84.6290         2.3717         5.0775       0.258580 
      0.389842        11.5800         2.7430         7.4950         2.9960 
        0.0590         0.0000         0.0120         0.9730         3.4582 
      0.366414         2.2160         0.3970       -20.0730         1.0000 
        0.0000         0.4102
       4743.00 
       10.0000       0.212805       0.259770        10.2490      0.0694132 
    -0.0060000        63.0470       0.046960        63.0470         0.3060 
        0.3320       0.212805         4.6960         4.6960       0.046960 
       84.9120      -999.2500         2.4341         6.0430       0.259770 
      0.395300        10.6175         3.5645         7.0990         3.4620 
        0.2070         0.0385         0.0185         0.9705         3.3440 
      0.368500         2.2010         0.4020       -19.1880         1.0000 
        0.0000         0.4235
       4743.50 
       10.0000       0.207430       0.260960        10.5385      0.0657151 
    -0.0048000        61.5075       0.053520        61.5075         0.3042 
        0.3308       0.207430         5.3520         5.3520       0.053520 
       83.1670        83.2960         2.4046         8.1030       0.260960 
      0.387088         9.6550         4.3860         6.7030         3.9280 
        0.3550         0.0770         0.0250         0.9680         3.3370 
      0.368729         2.1965         0.4082       -23.5005         1.0000 
        0.0000         0.3941
       4744.00 
       10.0000       0.201490       0.287560        10.7610      0.0407942 
    -0.0040000        64.1050       0.086070        64.1050         0.3000 
        0.3250       0.201490         8.6070         8.6070       0.086070 
       83.0220        80.4550         2.3403        10.0363       0.287560 
      0.385080        10.7010         6.0350         3.4140         5.1210 
        2.9660         0.2020         0.0000         0.3180         3.3970 
      0.357212         2.2090         0.3990       -26.9380         1.0000 
        0.0000         0.3047
       4744.50 
       10.0000       0.188240       0.295170        10.6390      0.0320962 
    -0.0035000        64.8762       0.106930        64.8762         0.2905 
        0.3105       0.188240        10.6930        10.6930       0.106930 
       82.6190        78.9230         2.2821        13.4258       0.295170 
      0.378843         9.2510         8.4600         1.1130         6.0190 
        4.5530         0.0200         0.0000         0.1010         3.5070 
      0.354369         2.2080         0.3540       -26.7400         1.0000 
        0.0000         0.2615
       4745.00 
       10.0000       0.173920       0.296610        10.4340      0.0391090 
    -0.0060000        63.2820       0.122690        63.2820         0.2830 
        0.2980       0.173920        12.2690        12.2690       0.122690 
       81.0540        77.5260         2.3277        17.6085       0.296610 
      0.387160         7.4810         9.8500         0.0620         7.0220 
        5.2470         0.0000         0.0000         0.0000         3.5320 
      0.365849         2.1880         0.3040       -30.1250         1.0000 
        0.0000         0.2830
       4745.50 
       10.0000       0.172050       0.295015        10.2173      0.0513037 
    -0.0093000        59.3418       0.122965        59.3418         0.2753 
        0.2822       0.172050        12.2965        12.2965       0.122965 
       78.7355      -999.2500         2.3980        27.6806       0.295015 
      0.388992         6.8420         9.6600         0.7035         6.8640 
        5.4135         0.0190         0.0000         0.0000         3.4415 
      0.381664         2.1438         0.3080       -31.4067         1.0000 
        0.0000         0.2937
       4746.00 
       10.0000       0.170180       0.293420        10.2090      0.0566924 
    -0.0110000        59.2410       0.123240        59.2410         0.2720 
        0.2730       0.170180        12.3240        12.3240       0.123240 
       77.1760        76.7980         2.4235        34.7809       0.293420 
      0.387050         6.2030         9.4700         1.3450         6.7060 
        5.5800         0.0380         0.0000         0.0000         3.4940 
      0.383175         2.1230         0.3130       -36.2500         1.0000 
        0.0000         0.2926
       4746.50 
       10.0000       0.172080       0.288800        10.2862      0.0552043 
    -0.0117000        58.1898       0.116720        58.1898         0.2673 
        0.2667       0.172080        11.6720        11.6720       0.116720 
       76.2205        75.4740         2.3660        41.7281       0.288800 
      0.382375         4.8270         8.5030         3.8780         5.5930 
        5.8650         0.2140         0.0000         0.0000         3.3513 
      0.376059         2.1363         0.3027       -39.1150         1.0000 
        0.0000         0.2924
       4747.00 
       10.0000       0.175290       0.293550        10.2720      0.0387051 
    -0.0100000        58.9240       0.118260        58.9240         0.2640 
        0.2650       0.175290        11.8260        11.8260       0.118260 
       76.3630        73.5040         2.2429        45.2221       0.293550 
      0.364800         5.0870         6.9570         5.4860         5.6910 
        5.7710         0.3640         0.0000         0.0000         3.3430 
      0.351545         2.1580         0.2860       -36.8750         1.0000 
        0.0000         0.2227
       4747.50 
       10.0000       0.170220       0.306080        10.2280      0.0313962 
    -0.0053000        61.5482       0.135860        61.5482         0.2605 
        0.2663       0.170220        13.5860        13.5860       0.135860 
       78.1815        71.6230         2.2421        56.0026       0.306080 
      0.385957         6.4820         6.8970         3.6430         7.7990 
        5.5460         0.2410         0.0000         0.0000         3.3543 
      0.365584         2.1862         0.3162       -35.6250         1.0000 
        0.0000         0.2496
       4748.00 
       10.0000       0.163010       0.321640        10.2030      0.0193480 
    -0.0070000        62.5590       0.158630        62.5590         0.2580 
        0.2680       0.163010        15.8630        15.8630       0.158630 
       77.7370        66.0490         2.2213        66.5381       0.321640 
      0.384740         8.9920         6.3000         1.0090        10.5320 
        5.3310         0.0000         0.0000         0.0000         3.4610 
      0.365550         2.1820         0.3420       -35.6250         1.0000 
        0.0000         0.1972
       4748.50 
       10.0000       0.161670       0.328215        10.2075      0.0158734 
    -0.0065000        61.6837       0.166545        61.6837         0.2557 
        0.2675       0.161670        16.6545        16.6545       0.166545 
       76.5320      -999.2500         2.2218        84.5410       0.328215 
      0.380608        10.4610         5.1640         0.5415        11.5095 
        5.1455         0.0000         0.0000         0.0000         3.5865 
      0.368079         2.1662         0.3527       -33.0525         1.0000 
        0.0000         0.1637
