~Version Information Block
VERS .                  2.0:  CWLS LOG ASCII STANDARD - VERSION 2.0
WRAP .                  YES:  Multiple lines per depth step
~Well Information Block
#MNEM.UNIT        Data Type   Information
#---------- ----------------  -----------
STRT .FT            4000.00:  START DEPTH
STOP .FT            5000.00:  STOP DEPTH
STEP .FT               0.50:  STEP
NULL .              -999.25:  NULL VALUE
COMP .     PENNZOIL EXPLORATION & PRODUCTION COMPANY:  COMPANY
WELL .              EXAMPLE:  WELL
FLD  .     EUGENE ISLAND BLOCK 330:  FIELD
LOC  .     5150 FSL & 8006 FEL:  LOCATION
CTRY .                  USA:  COUNTRY
STAT .            LOUISIANA:  STATE
CNTY .             OFFSHORE:  COUNTY
SRVC .         PetCom, Inc.:  SERVICE COMPANY
DATE .     14-MAR-96 @ 10:58:58:  DATE
API  .                     :  API NUMBER
UWI  .                     :  UNIQUE WELL ID
~Curve Information Block
#MNEM.UNIT         API CODE   Curve Description
#---------- ----------------  -----------------
DEPTH.FT                   :  
BS   .IN                   :  10
BVI  .V/V                  :  MBVI/100
BVW  .V/V                  :  SW*MPHI/100
CALI .IN                   :  
CBW  .V/V                  :  Clay-Bound Water
DRHO .G/C3                 :  
DT   .USEC/F                 :  
FFI  .V/V                  :  MFFI/100
GR   .GAPI                 :  
ILD  .OHMM                 :  
ILM  .OHMM                 :  
MBVI .V/V                  :  MBVI/100
MFFI .%                  PU:  
MFFI .%                    :  MFFI/100
MFFI .V/V                  :  MFFI/100
MGR  .GAPI              CPS:  
MGR  .                     :  
MNA  .                     :  m* apparent,  valid in wet intervals for m* trend
MPERM.MD                 MD:  
MPHI .V/V                  :  MPHI/100
NPHI .V/V                  :  
P1   .%                  PU:  
P2   .%                  PU:  
P3   .%                  PU:  
P4   .%                  PU:  
P5   .%                  PU:  
P6   .%                  PU:  
P7   .%                  PU:  
P8   .%                  PU:  
PEF  .B/E                  :  
PHIX .V/V                  :  
RHOB .G/C3                 :  
RMLL .OHMM                 :  
SP   .MV                   :  
SW   .V/V                  :  
T2_DIST.MSEC                 :  NMR T2 DISTRIBUTION
VSH  .V/V                  :  Volume of Shale used in Analysis
~Other Information Block
~Ascii Log Data
# ...
       4539.00 
       10.0000       0.129040       0.187230        10.2150      0.1379070 
    -0.0030000        80.6990       0.058190        80.6990         0.6780 
        0.6560       0.129040         5.8190         5.8190       0.058190 
      108.9310       106.4560         3.2482         1.0612       0.187230 
      0.441230        12.6150         0.1730         0.1160         2.3190 
        2.8520         0.5400         0.1080         0.0000         3.8700 
      0.352948         2.2580         0.5780        -8.0630         1.0000 
        0.0000         0.7938
       4539.50 
       10.0000       0.141780       0.188920        10.2937      0.1370111 
    -0.0040000        81.9712       0.047150        81.9712         0.6685 
        0.6625       0.141780         4.7150         4.7150       0.047150 
      105.5820       106.1620         3.2403         0.8343       0.188920 
      0.424537        14.0550         0.1230         0.0000         0.6890 
        3.4860         0.5400         0.0000         0.0000         3.9133 
      0.364563         2.2137         0.6912       -11.4063         1.0000 
        0.0000         0.7363
       4540.00 
       10.0000       0.143328       0.189190        10.2770      0.1236882 
    -0.0040000        79.4870       0.045870        79.4870         0.6660 
        0.6750       0.143328         4.5870         4.5870       0.045870 
      102.1880      -999.2500         3.1071         0.8470       0.189190 
      0.390970        14.2330         0.0997         0.0000         0.5617 
        3.5282         0.4970         0.0000         0.0000         3.6600 
      0.368253         2.2020         0.8470       -15.3130         1.0000 
        0.0000         0.6306
       4540.50 
       10.0000       0.144875       0.189460        10.2002      0.1209520 
    -0.0055000        77.7717       0.044590        77.7717         0.6672 
        0.6948       0.144875         4.4590         4.4590       0.044590 
      100.2075      -999.2500         3.0841         0.9379       0.189460 
      0.380492        14.4110         0.0765         0.0000         0.4345 
        3.5705         0.4540         0.0000         0.0000         3.6802 
      0.362800         2.1920         0.8218       -16.3333         1.0000 
        0.0000         0.5970
       4541.00 
       10.0000       0.147970       0.190000        10.1860      0.1300719 
    -0.0030000        77.6700       0.042030        77.6700         0.6680 
        0.7040       0.147970         4.2030         4.2030       0.042030 
       99.9730       104.2440         3.1791         0.9810       0.190000 
      0.408600        14.7670         0.0300         0.0000         0.1800 
        3.6550         0.3680         0.0000         0.0000         3.6860 
      0.367739         2.2070         0.7860       -18.6250         1.0000 
        0.0000         0.6831
       4541.50 
       10.0000       0.140640       0.183930        10.4030      0.1387939 
    -0.0033000        80.3013       0.043290        80.3013         0.6675 
        0.6998       0.140640         4.3290         4.3290       0.043290 
      101.6970       102.2020         3.2171         0.9564       0.183930 
      0.419670        13.9580         0.0750         0.0320         0.8080 
        3.3170         0.1800         0.0040         0.0190         3.8047 
      0.364353         2.2133         0.7227       -13.7292         1.0000 
        0.0000         0.7367
       4542.00 
       10.0000       0.129190       0.172690        10.4080      0.1594198 
    -0.0050000        80.1130       0.043490        80.1130         0.6600 
        0.6890       0.129190         4.3490         4.3490       0.043490 
      102.9480       101.1990         3.3231         0.9615       0.172690 
      0.444920        11.7980         0.2290         0.8910         1.9090 
        2.0080         0.0820         0.0130         0.3370         3.8480 
      0.366680         2.2150         0.6760       -11.1250         1.0000 
        0.0000         0.8507
       4542.50 
       10.0000       0.139970       0.174040        10.4105      0.1426429 
    -0.0020000        83.3418       0.034070        83.3418         0.6450 
        0.6668       0.139970         3.4070         3.4070       0.034070 
      103.9885       102.8500         3.1473         0.9670       0.174040 
      0.418923         9.8570         0.0000         4.1400         2.2720 
        0.0000         0.0000         0.0000         1.1350         3.7460 
      0.358914         2.2318         0.5533       -10.7608         1.0000 
        0.0000         0.7653
       4543.00 
       10.0000       0.145545       0.176710        10.2530      0.1404356 
    -0.0020000        81.9260       0.031165        81.9260         0.6350 
        0.6510       0.145545         3.1165         3.1165       0.031165 
      104.2490      -999.2500         3.1330         0.9954       0.176710 
      0.418440         9.7395         0.0000         4.8150         1.9875 
        0.0000         0.0000         0.0000         1.1290         3.7460 
      0.359006         2.2310         0.4900       -10.5000         1.0000 
        0.0000         0.7554
       4543.50 
       10.0000       0.151120       0.179380        10.2112      0.1341495 
    -0.0062000        79.5060       0.028260        79.5060         0.6197 
        0.6328       0.151120         2.8260         2.8260       0.028260 
      102.0980       103.0450         3.0717         1.1701       0.179380 
      0.398475         9.6220         0.0000         5.4900         1.7030 
        0.0000         0.0000         0.0000         1.1230         3.6912 
      0.368273         2.2058         0.5805       -13.0730         1.0000 
        0.0000         0.6847
       4544.00 
       10.0000       0.163490       0.187710        10.2170      0.1263129 
    -0.0120000        75.9160       0.024220        75.9160         0.6080 
        0.6220       0.163490         2.4220         2.4220       0.024220 
      100.0850       102.0580         3.0431         1.2503       0.187710 
      0.385850        10.1600         0.0000         6.1890         1.3790 
        0.0000         0.0000         0.0000         1.0430         3.6720 
      0.365656         2.1850         0.7230       -17.8130         1.0000 
        0.0000         0.6192
       4544.50 
       10.0000       0.168160       0.197000        10.3775      0.1086201 
    -0.0137000        77.6490       0.028830        77.6490         0.5965 
        0.6080       0.168160         2.8830         2.8830       0.028830 
       95.5425        99.3840         2.9274         1.1294       0.197000 
      0.353125        11.5740         0.0150         5.2280         2.0200 
        0.0000         0.0000         0.0000         0.8630         3.6560 
      0.346467         2.1678         0.8330       -24.1255         1.0000 
        0.0000         0.4879
       4545.00 
       10.0000       0.173660       0.209730        10.4250      0.0945364 
    -0.0170000        73.2340       0.036060        73.2340         0.5890 
        0.5980       0.173660         3.6060         3.6060       0.036060 
       93.0080        96.1650         2.8764         1.0580       0.209730 
      0.337450        13.5820         0.5380         3.2460         2.6880 
        0.2000         0.0480         0.0140         0.6560         3.6610 
      0.348175         2.1570         0.7730       -28.8130         1.0000 
        0.0000         0.3991
       4545.50 
       10.0000       0.182230       0.219869        10.2492      0.0800629 
    -0.0142000        67.8545       0.042530        67.8545         0.5792 
        0.5853       0.182230         4.2530         4.2530       0.042530 
       91.7075        93.2600         2.8338         1.4071       0.224770 
      0.336490        15.4830         1.3040         1.4360         2.8210 
        0.6710         0.2260         0.0320         0.5030         3.9465 
      0.339873         2.1652         0.6763       -30.0213         0.9782 
        0.0000         0.3491
