~Version Information Block
VERS .                  2.0:  CWLS LOG ASCII STANDARD - VERSION 2.0
WRAP .                  YES:  Multiple lines per depth step
~Well Information Block
#MNEM.UNIT        Data Type   Information
#---------- ----------------  -----------
STRT .FT            4000.00:  START DEPTH
STOP .FT            5000.00:  STOP DEPTH
STEP .FT               0.50:  STEP
NULL .              -999.25:  NULL VALUE
COMP .     PENNZOIL EXPLORATION & PRODUCTION COMPANY:  COMPANY
WELL .              EXAMPLE:  WELL
FLD  .     EUGENE ISLAND BLOCK 330:  FIELD
LOC  .     5150 FSL & 8006 FEL:  LOCATION
CTRY .                  USA:  COUNTRY
STAT .            LOUISIANA:  STATE
CNTY .             OFFSHORE:  COUNTY
SRVC .         PetCom, Inc.:  SERVICE COMPANY
DATE .     14-MAR-96 @ 10:58:58:  DATE
API  .                     :  API NUMBER
UWI  .                     :  UNIQUE WELL ID
~Curve Information Block
#MNEM.UNIT         API CODE   Curve Description
#---------- ----------------  -----------------
DEPTH.FT                   :  
BS   .IN                   :  10
BVI  .V/V                  :  MBVI/100
BVW  .V/V                  :  SW*MPHI/100
CALI .IN                   :  
CBW  .V/V                  :  Clay-Bound Water
DRHO .G/C3                 :  
DT   .USEC/F                 :  
FFI  .V/V                  :  MFFI/100
GR   .GAPI                 :  
ILD  .OHMM                 :  
ILM  .OHMM                 :  
MBVI .V/V                  :  MBVI/100
MFFI .%                  PU:  
MFFI .%                    :  MFFI/100
MFFI .V/V                  :  MFFI/100
MGR  .GAPI              CPS:  
MGR  .                     :  
MNA  .                     :  m* apparent,  valid in wet intervals for m* trend
MPERM.MD                 MD:  
MPHI .V/V                  :  MPHI/100
NPHI .V/V                  :  
P1   .%                  PU:  
P2   .%                  PU:  
P3   .%                  PU:  
P4   .%                  PU:  
P5   .%                  PU:  
P6   .%                  PU:  
P7   .%                  PU:  
P8   .%                  PU:  
PEF  .B/E                  :  
PHIX .V/V                  :  
RHOB .G/C3                 :  
RMLL .OHMM                 :  
SP   .MV                   :  
SW   .V/V                  :  
T2_DIST.MSEC                 :  NMR T2 DISTRIBUTION
VSH  .V/V                  :  Volume of Shale used in Analysis
~Other Information Block
~Ascii Log Data
# ...
       4763.00 
       10.0000       0.143920       0.275660        10.1380      0.0520468 
    -0.0130000        61.6840       0.131740        61.6840         0.2780 
        0.2930       0.143920        13.1740        13.1740       0.131740 
        0.0000         0.0000         2.2983        92.8675       0.275660 
      0.390290         7.4640         6.9280         0.0000         3.1260 
        9.8690         0.1780         0.0000         0.0000         3.1130 
      0.367040         2.2120         0.4220       -26.5000         1.0000 
        0.0000         0.3582
       4763.50 
       10.0000       0.143415       0.269890        10.0997      0.0746846 
    -0.0183000        59.9310       0.126475        59.9310         0.2912 
        0.3037       0.143415        12.6475        12.6475       0.126475 
        0.0000      -999.2500         2.4987        64.9244       0.269890 
      0.417563         6.7605         7.4105         0.1710         3.1430 
        9.2240         0.2650         0.0145         0.0000         2.9288 
      0.372731         2.1862         0.3247       -27.4063         1.0000 
        0.0000         0.4615
       4764.00 
       10.0000       0.142910       0.264120        10.0330      0.0820635 
    -0.0200000        57.8410       0.121210        57.8410         0.3020 
        0.3070       0.142910        12.1210        12.1210       0.121210 
        0.0000         0.0000         2.5605        53.4065       0.264120 
      0.421630         6.0570         7.8930         0.3420         3.1600 
        8.5790         0.3520         0.0290         0.0000         2.8580 
      0.372877         2.1820         0.2480       -29.4380         1.0000 
        0.0000         0.4922
       4764.50 
       10.0000       0.151360       0.259230        10.0510      0.0746287 
    -0.0147000        57.7115       0.107880        57.7115         0.3072 
        0.3082       0.151360        10.7880        10.7880       0.107880 
        0.0000         0.0000         2.4809        37.3928       0.259230 
      0.406517         6.3970         6.9880         1.7510         3.4910 
        6.0670         0.9190         0.2460         0.0640         2.8102 
      0.368282         2.2027         0.2895       -32.1667         1.0000 
        0.0000         0.4603
       4765.00 
       10.0000       0.166560       0.265820        10.0660      0.0587259 
    -0.0130000        59.4990       0.099260        59.4990         0.3080 
        0.3090       0.166560         9.9260         9.9260       0.099260 
        0.0000         0.0000         2.3876        30.1201       0.265820 
      0.391850         9.1430         4.4580         3.0550         4.5960 
        3.4460         1.1520         0.3840         0.3480         2.8960 
      0.365474         2.2210         0.3270       -32.3750         1.0000 
        0.0000         0.3938
       4765.50 
       10.0000       0.204060       0.300683        10.0772      0.0060731 
    -0.0097000        65.3782       0.114150        65.3782         0.3097 
        0.3117       0.204060        11.4150        11.4150       0.114150 
        0.0000         0.0000         2.2512        21.9209       0.318200 
      0.363002        15.1110         1.6990         3.5960         7.9490 
        1.6110         0.5650         0.2120         1.0770         3.1102 
      0.338250         2.2102         0.3618       -28.8958         0.9449 
        0.0000         0.1400
       4766.00 
       10.0000       0.255830       0.299093        10.0480   -999.2500000 
    -0.0130000        67.6990       0.150190        67.6990         0.3130 
        0.3150       0.255830        15.0190        15.0190       0.150190 
        0.0000         0.0000      -999.2500        18.6344       0.406020 
      0.360010        22.0100         0.2360         3.3370        12.7970 
        0.3540         0.0820         0.0270         1.7590         3.1060 
      0.335817         2.1910         0.3510       -26.5000         0.7366 
        0.0000      -999.2500
       4766.50 
       10.0000       0.276590       0.295435        10.0427   -999.2500000 
    -0.0115000        67.5998       0.163400        67.5998         0.3208 
        0.3208       0.276590        16.3400        16.3400       0.163400 
        0.0000      -999.2500      -999.2500        32.9467       0.439990 
      0.344583        23.7320         0.1180         3.8085        14.1285 
        0.1770         0.0410         0.0135         1.9800         3.1922 
      0.335916         2.1895         0.3442       -28.2813         0.6715 
        0.0000      -999.2500
       4767.00 
       10.0000       0.297350       0.293520        10.0760   -999.2500000 
    -0.0090000        67.7390       0.176610        67.7390         0.3250 
        0.3250       0.297350        17.6610        17.6610       0.176610 
        0.0000         0.0000      -999.2500        71.6339       0.473960 
      0.345600        25.4540         0.0000         4.2800        15.4600 
        0.0000         0.0000         0.0000         2.2010         3.2830 
      0.334529         2.2070         0.3750       -26.5630         0.6193 
        0.0000      -999.2500
       4767.50 
       10.0000    -999.250000    -999.250000        10.1287   -999.2500000 
    -0.0013000        67.5227    -999.250000        67.5227         0.3273 
        0.3330    -999.250000      -999.2500      -999.2500    -999.250000 
        0.0000      -999.2500      -999.2500       146.4306    -999.250000 
      0.381175      -999.2500      -999.2500      -999.2500      -999.2500 
     -999.2500      -999.2500      -999.2500      -999.2500         3.3808 
      0.349945         2.2360         0.4250       -26.0630      -999.2500 
     -999.2500      -999.2500
       4768.00 
       10.0000    -999.250000    -999.250000        10.1170   -999.2500000 
    -0.0030000        69.9860    -999.250000        69.9860         0.3290 
        0.3380    -999.250000      -999.2500      -999.2500    -999.250000 
        0.0000      -999.2500      -999.2500       169.4830    -999.250000 
      0.385850      -999.2500      -999.2500      -999.2500      -999.2500 
     -999.2500      -999.2500      -999.2500      -999.2500         3.3100 
      0.351301         2.2410         0.4050       -21.0630      -999.2500 
     -999.2500      -999.2500
       4768.50 
       10.0000    -999.250000    -999.250000        10.0653   -999.2500000 
    -0.0038000        69.3917    -999.250000        69.3917         0.3328 
        0.3422    -999.250000      -999.2500      -999.2500    -999.250000 
        0.0000      -999.2500      -999.2500        27.5526    -999.250000 
      0.420657      -999.2500      -999.2500      -999.2500      -999.2500 
     -999.2500      -999.2500      -999.2500      -999.2500         3.0492 
      0.363648         2.2230         0.3680       -19.2708      -999.2500 
     -999.2500      -999.2500
       4769.00 
       10.0000    -999.250000    -999.250000        10.0620   -999.2500000 
    -0.0080000        69.6800    -999.250000        69.6800         0.3370 
        0.3430    -999.250000      -999.2500      -999.2500    -999.250000 
     -999.2500      -999.2500      -999.2500      -999.2500    -999.250000 
      0.411340      -999.2500      -999.2500      -999.2500      -999.2500 
     -999.2500      -999.2500      -999.2500      -999.2500         2.9550 
      0.368595         2.1980         0.3330       -22.5000      -999.2500 
     -999.2500      -999.2500
       4769.50 
       10.0000    -999.250000    -999.250000        10.0188   -999.2500000 
    -0.0120000        67.2123    -999.250000        67.2123         0.3398 
        0.3442    -999.250000      -999.2500      -999.2500    -999.250000 
     -999.2500      -999.2500      -999.2500      -999.2500    -999.250000 
      0.418765      -999.2500      -999.2500      -999.2500      -999.2500 
     -999.2500      -999.2500      -999.2500      -999.2500         2.9265 
      0.372577         2.1883         0.3198       -23.7817      -999.2500 
     -999.2500      -999.2500
