~Version Information Block
VERS .                  2.0:  CWLS LOG ASCII STANDARD - VERSION 2.0
WRAP .                  YES:  Multiple lines per depth step
~Well Information Block
#MNEM.UNIT        Data Type   Information
#---------- ----------------  -----------
STRT .FT            4000.00:  START DEPTH
STOP .FT            5000.00:  STOP DEPTH
STEP .FT               0.50:  STEP
NULL .              -999.25:  NULL VALUE
COMP .     PENNZOIL EXPLORATION & PRODUCTION COMPANY:  COMPANY
WELL .              EXAMPLE:  WELL
FLD  .     EUGENE ISLAND BLOCK 330:  FIELD
LOC  .     5150 FSL & 8006 FEL:  LOCATION
CTRY .                  USA:  COUNTRY
STAT .            LOUISIANA:  STATE
CNTY .             OFFSHORE:  COUNTY
SRVC .         PetCom, Inc.:  SERVICE COMPANY
DATE .     14-MAR-96 @ 10:58:58:  DATE
API  .                     :  API NUMBER
UWI  .                     :  UNIQUE WELL ID
~Curve Information Block
#MNEM.UNIT         API CODE   Curve Description
#---------- ----------------  -----------------
DEPTH.FT                   :  
BS   .IN                   :  10
BVI  .V/V                  :  MBVI/100
BVW  .V/V                  :  SW*MPHI/100
CALI .IN                   :  
CBW  .V/V                  :  Clay-Bound Water
DRHO .G/C3                 :  
DT   .USEC/F                 :  
FFI  .V/V                  :  MFFI/100
GR   .GAPI                 :  
ILD  .OHMM                 :  
ILM  .OHMM                 :  
MBVI .V/V                  :  MBVI/100
MFFI .%                  PU:  
MFFI .%                    :  MFFI/100
MFFI .V/V                  :  MFFI/100
MGR  .GAPI              CPS:  
MGR  .                     :  
MNA  .                     :  m* apparent,  valid in wet intervals for m* trend
MPERM.MD                 MD:  
MPHI .V/V                  :  MPHI/100
NPHI .V/V                  :  
P1   .%                  PU:  
P2   .%                  PU:  
P3   .%                  PU:  
P4   .%                  PU:  
P5   .%                  PU:  
P6   .%                  PU:  
P7   .%                  PU:  
P8   .%                  PU:  
PEF  .B/E                  :  
PHIX .V/V                  :  
RHOB .G/C3                 :  
RMLL .OHMM                 :  
SP   .MV                   :  
SW   .V/V                  :  
T2_DIST.MSEC                 :  NMR T2 DISTRIBUTION
VSH  .V/V                  :  Volume of Shale used in Analysis
~Other Information Block
~Ascii Log Data
# ...
       4938.00 
     -999.2500       0.115905    -999.250000        10.0600   -999.2500000 
    -0.0110000        38.2870    -999.250000        38.2870         0.1820 
        0.1860       0.115905        13.8830        13.8830    -999.250000 
     -999.2500        50.9685      -999.2500      -999.2500       0.254740 
      0.363970        11.5905         0.0000         0.0000         0.0000 
        9.5200         4.3635         0.0000         0.0000         3.0740 
      0.379837         2.0810         0.1560       -46.5000      -999.2500 
     -999.2500      -999.2500
       4938.50 
     -999.2500       0.116180    -999.250000        10.0527   -999.2500000 
    -0.0172000        39.2515    -999.250000        39.2515         0.1820 
        0.1858       0.116180        13.8050        13.8050    -999.250000 
     -999.2500        50.7400      -999.2500      -999.2500       0.254230 
      0.373657        11.6180         0.0000         0.0000         0.0000 
        9.3000         4.5050         0.0000         0.0000         2.9197 
      0.387519         2.0672         0.1678       -47.1775      -999.2500 
     -999.2500      -999.2500
       4939.00 
     -999.2500       0.111620    -999.250000        10.0360   -999.2500000 
    -0.0180000        38.8190    -999.250000        38.8190         0.1820 
        0.1850       0.111620        13.6360        13.6360    -999.250000 
     -999.2500        50.8050      -999.2500      -999.2500       0.247980 
      0.380190        11.1620         0.0000         0.0000         0.0000 
        9.3500         4.2860         0.0000         0.0000         2.7030 
      0.396264         2.0680         0.1670       -47.7500      -999.2500 
     -999.2500      -999.2500
       4939.50 
     -999.2500       0.110570    -999.250000        10.0288   -999.2500000 
    -0.0168000        37.9955    -999.250000        37.9955         0.1818 
        0.1848       0.110570        13.8270        13.8270    -999.250000 
     -999.2500        51.3600      -999.2500      -999.2500       0.248840 
      0.367883        11.0570         0.0000         0.0000         0.0000 
       10.1090         3.7180         0.0000         0.0000         2.6833 
      0.381226         2.0765         0.1622       -47.0525      -999.2500 
     -999.2500      -999.2500
       4940.00 
     -999.2500       0.114750    -999.250000        10.0430   -999.2500000 
    -0.0160000        35.6930    -999.250000        35.6930         0.1810 
        0.1840       0.114750        13.8490        13.8490    -999.250000 
     -999.2500      -999.2500      -999.2500      -999.2500       0.253240 
      0.362650        11.4750         0.0000         0.0000         0.0000 
       10.2885         3.5605         0.0000         0.0000         2.6550 
      0.378139         2.0890         0.1580       -47.0000      -999.2500 
     -999.2500      -999.2500
       4940.50 
     -999.2500       0.118930    -999.250000        10.0468   -999.2500000 
    -0.0142000        38.8937    -999.250000        38.8937         0.1808 
        0.1838       0.118930        13.8710        13.8710    -999.250000 
     -999.2500        52.1460      -999.2500      -999.2500       0.257640 
      0.367175        11.8930         0.0000         0.0000         0.0000 
       10.4680         3.4030         0.0000         0.0000         2.6195 
      0.379117         2.0967         0.1590       -48.0625      -999.2500 
     -999.2500      -999.2500
       4941.00 
     -999.2500       0.126190    -999.250000        10.0160   -999.2500000 
    -0.0100000        38.0270    -999.250000        38.0270         0.1800 
        0.1830       0.126190        13.4410        13.4410    -999.250000 
     -999.2500        53.0830      -999.2500      -999.2500       0.260610 
      0.377900        12.6190         0.0000         0.0000         0.0000 
        9.9440         3.4980         0.0000         0.0000         2.5820 
      0.381276         2.1050         0.1590       -48.3750      -999.2500 
     -999.2500      -999.2500
       4941.50 
     -999.2500       0.123020    -999.250000        10.0348   -999.2500000 
    -0.0053000        41.3815    -999.250000        41.3815         0.1800 
        0.1828       0.123020        12.9070        12.9070    -999.250000 
     -999.2500        54.4740      -999.2500      -999.2500       0.252090 
      0.372935        12.3020         0.0000         0.0000         0.0000 
        9.5700         3.3370         0.0000         0.0000         2.5763 
      0.369660         2.1125         0.1587       -48.9688      -999.2500 
     -999.2500      -999.2500
       4942.00 
     -999.2500       0.113800    -999.250000        10.0040   -999.2500000 
    -0.0070000        42.4590    -999.250000        42.4590         0.1800 
        0.1820       0.113800        12.4030        12.4030    -999.250000 
     -999.2500        56.0610      -999.2500      -999.2500       0.237840 
      0.368160        11.3800         0.0000         0.0000         0.0000 
        9.6910         2.7120         0.0000         0.0000         2.6480 
      0.368106         2.1100         0.1570       -49.4380      -999.2500 
     -999.2500      -999.2500
       4942.50 
     -999.2500       0.104890    -999.250000         9.9843   -999.2500000 
    -0.0030000        44.2522    -999.250000        44.2522         0.1800 
        0.1830       0.104890        11.8530        11.8530    -999.250000 
     -999.2500        57.7120      -999.2500      -999.2500       0.223420 
      0.381095        10.4890         0.0000         0.0000         0.0000 
        9.9100         1.9430         0.0000         0.0000         2.7232 
      0.382310         2.1100         0.1595       -48.5108      -999.2500 
     -999.2500      -999.2500
       4943.00 
     -999.2500       0.101840    -999.250000         9.9860   -999.2500000 
    -0.0030000        43.6030    -999.250000        43.6030         0.1800 
        0.1830       0.101840        11.6585        11.6585    -999.250000 
     -999.2500      -999.2500      -999.2500      -999.2500       0.218425 
      0.381820        10.1840         0.0000         0.0000         0.0000 
       10.1330         1.5255         0.0000         0.0000         2.7390 
      0.382681         2.1050         0.1620       -48.2500      -999.2500 
     -999.2500      -999.2500
       4943.50 
     -999.2500       0.098790    -999.250000         9.9723   -999.2500000 
    -0.0058000        41.7275    -999.250000        41.7275         0.1802 
        0.1842       0.098790        11.4640        11.4640    -999.250000 
     -999.2500        59.4930      -999.2500      -999.2500       0.213430 
      0.404907         9.8790         0.0000         0.0000         0.0000 
       10.3560         1.1080         0.0000         0.0000         2.6575 
      0.392786         2.0952         0.1582       -45.6880      -999.2500 
     -999.2500      -999.2500
       4944.00 
     -999.2500       0.094350    -999.250000         9.9640   -999.2500000 
    -0.0100000        44.5100    -999.250000        44.5100         0.1810 
        0.1850       0.094350        11.2140        11.2140    -999.250000 
     -999.2500        61.1920      -999.2500      -999.2500       0.206490 
      0.432240         9.4350         0.0000         0.0000         0.0000 
       10.8100         0.4050         0.0000         0.0000         2.6900 
      0.395820         2.0910         0.1590       -45.0630      -999.2500 
     -999.2500      -999.2500
       4944.50 
     -999.2500       0.091340    -999.250000         9.9610   -999.2500000 
    -0.0115000        47.0040    -999.250000        47.0040         0.1820 
        0.1872       0.091340        10.7170        10.7170    -999.250000 
     -999.2500        62.5710      -999.2500      -999.2500       0.198510 
      0.432642         9.1340         0.0000         0.0000         0.0000 
       10.6530         0.0640         0.0000         0.0000         2.9028 
      0.396430         2.0825         0.1600       -45.2088      -999.2500 
     -999.2500      -999.2500
