~Version Information Block
VERS .                  2.0:  CWLS LOG ASCII STANDARD - VERSION 2.0
WRAP .                  YES:  Multiple lines per depth step
~Well Information Block
#MNEM.UNIT        Data Type   Information
#---------- ----------------  -----------
STRT .FT            4000.00:  START DEPTH
STOP .FT            5000.00:  STOP DEPTH
STEP .FT               0.50:  STEP
NULL .              -999.25:  NULL VALUE
COMP .     PENNZOIL EXPLORATION & PRODUCTION COMPANY:  COMPANY
WELL .              EXAMPLE:  WELL
FLD  .     EUGENE ISLAND BLOCK 330:  FIELD
LOC  .     5150 FSL & 8006 FEL:  LOCATION
CTRY .                  USA:  COUNTRY
STAT .            LOUISIANA:  STATE
CNTY .             OFFSHORE:  COUNTY
SRVC .         PetCom, Inc.:  SERVICE COMPANY
DATE .     14-MAR-96 @ 10:58:58:  DATE
API  .                     :  API NUMBER
UWI  .                     :  UNIQUE WELL ID
~Curve Information Block
#MNEM.UNIT         API CODE   Curve Description
#---------- ----------------  -----------------
DEPTH.FT                   :  
BS   .IN                   :  10
BVI  .V/V                  :  MBVI/100
BVW  .V/V                  :  SW*MPHI/100
CALI .IN                   :  
CBW  .V/V                  :  Clay-Bound Water
DRHO .G/C3                 :  
DT   .USEC/F                 :  
FFI  .V/V                  :  MFFI/100
GR   .GAPI                 :  
ILD  .OHMM                 :  
ILM  .OHMM                 :  
MBVI .V/V                  :  MBVI/100
MFFI .%                  PU:  
MFFI .%                    :  MFFI/100
MFFI .V/V                  :  MFFI/100
MGR  .GAPI              CPS:  
MGR  .                     :  
MNA  .                     :  m* apparent,  valid in wet intervals for m* trend
MPERM.MD                 MD:  
MPHI .V/V                  :  MPHI/100
NPHI .V/V                  :  
P1   .%                  PU:  
P2   .%                  PU:  
P3   .%                  PU:  
P4   .%                  PU:  
P5   .%                  PU:  
P6   .%                  PU:  
P7   .%                  PU:  
P8   .%                  PU:  
PEF  .B/E                  :  
PHIX .V/V                  :  
RHOB .G/C3                 :  
RMLL .OHMM                 :  
SP   .MV                   :  
SW   .V/V                  :  
T2_DIST.MSEC                 :  NMR T2 DISTRIBUTION
VSH  .V/V                  :  Volume of Shale used in Analysis
~Other Information Block
~Ascii Log Data
# ...
       4665.00 
       10.0000       0.100430       0.351370        10.1030      0.0001000 
    -0.0110000        50.6740       0.250935        50.6740         0.2230 
        0.2230       0.100430        25.0935        25.0935       0.250935 
       58.0840      -999.2500         2.0150       665.6053       0.351370 
      0.347630         8.6690         0.8200         0.5540        14.4375 
       10.0860         0.4045         0.0000         0.1660         3.0360 
      0.350209         2.1370         0.3230       -54.5630         1.0000 
        0.0000         0.0000
       4665.50 
       10.0000       0.107870       0.350823        10.1192      0.0001000 
    -0.0123000        47.8570       0.249120        47.8570         0.2275 
        0.2243       0.107870        24.9120        24.9120       0.249120 
       60.2060        60.2400         2.0405       601.6327       0.357000 
      0.346388         9.9220         0.4540         0.4110        14.6050 
        9.9900         0.2850         0.0000         0.0330         2.9088 
      0.352016         2.1310         0.2150       -54.5213         0.9827 
        0.0000         0.0000
       4666.00 
       10.0000       0.119920       0.348911        10.0500      0.0001000 
    -0.0140000        48.1320       0.246080        48.1320         0.2300 
        0.2260       0.119920        24.6080        24.6080       0.246080 
       60.7750        61.4740         2.0983       548.5731       0.366000 
      0.359780        11.6100         0.0490         0.3340        15.7780 
        8.5970         0.0320         0.0000         0.2010         2.9330 
      0.361217         2.1260         0.1750       -53.6880         0.9533 
        0.0000         0.0000
       4666.50 
       10.0000       0.124640       0.346287        10.1297      0.0001000 
    -0.0145000        51.1763       0.243800        51.1763         0.2335 
        0.2307       0.124640        24.3800        24.3800       0.243800 
       61.9525        62.3790         2.0960       486.5741       0.368440 
      0.350782        11.8490         0.3610         0.2530        17.1530 
        6.7420         0.0240         0.0000         0.4610         3.2343 
      0.363302         2.1207         0.2192       -52.7917         0.9399 
        0.0000         0.0000
       4667.00 
       10.0000       0.139370       0.344447        10.1680      0.0001000 
    -0.0170000        50.6880       0.225870        50.6880         0.2360 
        0.2340       0.139370        22.5870        22.5870       0.225870 
       62.8470        62.7980         2.0978       447.1065       0.365230 
      0.346840        11.0160         1.3960         1.5240        15.6690 
        6.2540         0.1850         0.0220         0.4570         3.3510 
      0.363868         2.1190         0.2600       -52.3750         0.9431 
        0.0000         0.0000
       4667.50 
       10.0000       0.168780       0.340151        10.2060      0.0001000 
    -0.0183000        47.7867       0.184250        47.7867         0.2420 
        0.2398       0.168780        18.4250        18.4250       0.184250 
       62.9000        63.2550         2.0849       378.9598       0.353030 
      0.333282         8.4680         3.1040         5.3060        11.5080 
        5.6500         0.6370         0.1870         0.4430         3.2553 
      0.356185         2.1178         0.2715       -52.4588         0.9635 
        0.0000         0.0000
       4668.00 
       10.0000       0.177155       0.336690        10.1910      0.0019008 
    -0.0200000        45.3700       0.162405        45.3700         0.2470 
        0.2440       0.177155        16.2405        16.2405       0.162405 
       62.2330      -999.2500         2.1272       259.1141       0.339560 
      0.339990         6.5650         4.1775         6.9730         9.8435 
        4.7375         0.8135         0.3185         0.5275         3.1370 
      0.364468         2.1170         0.2740       -52.5630         0.9915 
        0.0000         0.0013
       4668.50 
       10.0000       0.185530       0.326090        10.1650      0.0193015 
    -0.0207000        49.6465       0.140560        49.6465         0.2542 
        0.2523       0.185530        14.0560        14.0560       0.140560 
       63.1625        64.9460         2.2261       153.5923       0.326090 
      0.356263         4.6620         5.2510         8.6400         8.1790 
        3.8250         0.9900         0.4500         0.6120         3.3207 
      0.364521         2.1167         0.2623       -52.0833         1.0000 
        0.0000         0.0943
       4669.00 
       10.0000       0.191900       0.300750        10.1750      0.0408954 
    -0.0190000        52.8690       0.108850        52.8690         0.2600 
        0.2590       0.191900        10.8850        10.8850       0.108850 
       64.4840        68.2080         2.2826        97.0667       0.300750 
      0.361530         2.0020         7.6930         9.4940         6.0880 
        2.5600         1.0770         0.5490         0.6110         3.5140 
      0.364800         2.1200         0.2790       -48.7500         1.0000 
        0.0000         0.1899
       4669.50 
       10.0000       0.204340       0.290310        10.3638      0.0425072 
    -0.0162000        54.1008       0.085970        54.1008         0.2698 
        0.2710       0.204340         8.5970         8.5970       0.085970 
       70.4980        71.8270         2.2688        60.8977       0.290310 
      0.363225         1.9360         8.7790         9.7180         5.0010 
        1.4850         0.8630         0.4520         0.7960         3.4443 
      0.348996         2.1502         0.3325       -43.7708         1.0000 
        0.0000         0.2279
       4670.00 
       10.0000       0.216190       0.287660        10.4980      0.0340485 
    -0.0170000        55.4250       0.071460        55.4250         0.2790 
        0.2810       0.216190         7.1460         7.1460       0.071460 
       72.8810        74.1400         2.2122        40.3293       0.287660 
      0.352950         2.4120         9.4290         9.7780         4.3480 
        0.8310         0.6030         0.4360         0.9290         3.5010 
      0.338193         2.1760         0.3650       -40.7500         1.0000 
        0.0000         0.2040
       4670.50 
       10.0000       0.225970       0.286580        10.7042      0.0295426 
    -0.0152000        55.0223       0.060610        55.0223         0.2902 
        0.2960       0.225970         6.0610         6.0610       0.060610 
       74.7370        75.2530         2.2024        31.5953       0.286580 
      0.356217         3.0830         9.6880         9.8260         3.6230 
        0.5680         0.4510         0.3960         1.0220         3.6192 
      0.334639         2.2050         0.3818       -37.7192         1.0000 
        0.0000         0.2176
       4671.00 
       10.0000       0.239515       0.290960        10.6450      0.0268467 
    -0.0160000        56.0290       0.051450        56.0290         0.2960 
        0.3060       0.239515         5.1450         5.1450       0.051450 
       75.3970      -999.2500         2.2222        26.0342       0.290960 
      0.358050         4.7720         9.1300        10.0495         2.9860 
        0.3745         0.3005         0.2820         1.2010         4.0100 
      0.334570         2.2050         0.3910       -36.0000         1.0000 
        0.0000         0.2097
       4671.50 
       10.0000       0.253060       0.295340        10.7193      0.0283816 
    -0.0192000        57.0402       0.042290        57.0402         0.3030 
        0.3173       0.253060         4.2290         4.2290       0.042290 
       75.4535        75.9420         2.2821        18.0392       0.295340 
      0.366613         6.4610         8.5720        10.2730         2.3490 
        0.1810         0.1500         0.1680         1.3800         3.9828 
      0.346563         2.1995         0.4357       -34.4167         1.0000 
        0.0000         0.2227
