~Version Information Block
VERS .                  2.0:  CWLS LOG ASCII STANDARD - VERSION 2.0
WRAP .                  YES:  Multiple lines per depth step
~Well Information Block
#MNEM.UNIT        Data Type   Information
#---------- ----------------  -----------
STRT .FT            4000.00:  START DEPTH
STOP .FT            5000.00:  STOP DEPTH
STEP .FT               0.50:  STEP
NULL .              -999.25:  NULL VALUE
COMP .     PENNZOIL EXPLORATION & PRODUCTION COMPANY:  COMPANY
WELL .              EXAMPLE:  WELL
FLD  .     EUGENE ISLAND BLOCK 330:  FIELD
LOC  .     5150 FSL & 8006 FEL:  LOCATION
CTRY .                  USA:  COUNTRY
STAT .            LOUISIANA:  STATE
CNTY .             OFFSHORE:  COUNTY
SRVC .         PetCom, Inc.:  SERVICE COMPANY
DATE .     14-MAR-96 @ 10:58:58:  DATE
API  .                     :  API NUMBER
UWI  .                     :  UNIQUE WELL ID
~Curve Information Block
#MNEM.UNIT         API CODE   Curve Description
#---------- ----------------  -----------------
DEPTH.FT                   :  
BS   .IN                   :  10
BVI  .V/V                  :  MBVI/100
BVW  .V/V                  :  SW*MPHI/100
CALI .IN                   :  
CBW  .V/V                  :  Clay-Bound Water
DRHO .G/C3                 :  
DT   .USEC/F                 :  
FFI  .V/V                  :  MFFI/100
GR   .GAPI                 :  
ILD  .OHMM                 :  
ILM  .OHMM                 :  
MBVI .V/V                  :  MBVI/100
MFFI .%                  PU:  
MFFI .%                    :  MFFI/100
MFFI .V/V                  :  MFFI/100
MGR  .GAPI              CPS:  
MGR  .                     :  
MNA  .                     :  m* apparent,  valid in wet intervals for m* trend
MPERM.MD                 MD:  
MPHI .V/V                  :  MPHI/100
NPHI .V/V                  :  
P1   .%                  PU:  
P2   .%                  PU:  
P3   .%                  PU:  
P4   .%                  PU:  
P5   .%                  PU:  
P6   .%                  PU:  
P7   .%                  PU:  
P8   .%                  PU:  
PEF  .B/E                  :  
PHIX .V/V                  :  
RHOB .G/C3                 :  
RMLL .OHMM                 :  
SP   .MV                   :  
SW   .V/V                  :  
T2_DIST.MSEC                 :  NMR T2 DISTRIBUTION
VSH  .V/V                  :  Volume of Shale used in Analysis
~Other Information Block
~Ascii Log Data
# ...
       4966.00 
     -999.2500       0.108670    -999.250000        10.0930   -999.2500000 
    -0.0040000        65.6550    -999.250000        65.6550         0.4300 
        0.4300       0.108670         1.9990         1.9990    -999.250000 
     -999.2500         0.0000      -999.2500      -999.2500       0.128660 
      0.339800        10.8670         0.0000         0.0000         1.5570 
        0.0000         0.0000         0.0000         0.4420         2.8030 
      0.323918         2.2330         0.4350       -23.0630      -999.2500 
     -999.2500      -999.2500
       4966.50 
     -999.2500       0.100620    -999.250000        10.3378   -999.2500000 
     0.0067000        69.5053    -999.250000        69.5053         0.4682 
        0.4772       0.100620         1.4970         1.4970    -999.250000 
     -999.2500         0.0000      -999.2500      -999.2500       0.115590 
      0.316255        10.0620         0.0000         0.0000         0.9800 
        0.0210         0.0000         0.0000         0.4960         2.7942 
      0.302397         2.2963         0.5033       -15.2708      -999.2500 
     -999.2500      -999.2500
       4967.00 
     -999.2500       0.092690    -999.250000        10.1370   -999.2500000 
     0.0050000        73.1820    -999.250000        73.1820         0.4990 
        0.5130       0.092690         1.0420         1.0420    -999.250000 
     -999.2500         0.0000      -999.2500      -999.2500       0.103110 
      0.301180         9.2690         0.0000         0.0000         0.4320 
        0.0950         0.0140         0.0000         0.5000         2.8250 
      0.285616         2.3080         0.5450        -8.5000      -999.2500 
     -999.2500      -999.2500
       4967.50 
     -999.2500       0.088410    -999.250000        10.1320   -999.2500000 
     0.0083000        77.3503    -999.250000        77.3503         0.5437 
        0.5643       0.088410         0.8680         0.8680    -999.250000 
     -999.2500      -999.2500      -999.2500      -999.2500       0.097095 
      0.323053         8.8410         0.0000         0.0000         0.2580 
        0.0950         0.0245         0.0000         0.4900         3.0038 
      0.316686         2.3118         0.6015        -4.5105      -999.2500 
     -999.2500      -999.2500
       4968.00 
     -999.2500       0.084130    -999.250000        10.1820   -999.2500000 
     0.0100000        82.5420    -999.250000        82.5420         0.5770 
        0.6010       0.084130         0.6940         0.6940    -999.250000 
     -999.2500         0.0000      -999.2500      -999.2500       0.091080 
      0.338370         8.4130         0.0000         0.0000         0.0840 
        0.0950         0.0350         0.0000         0.4800         3.2030 
      0.311977         2.3060         0.6490        -3.3130      -999.2500 
     -999.2500      -999.2500
       4968.50 
     -999.2500       0.073990    -999.250000        10.1500   -999.2500000 
     0.0133000        86.6608    -999.250000        86.6608         0.6170 
        0.6478       0.073990         0.5040         0.5040    -999.250000 
     -999.2500         0.0000      -999.2500      -999.2500       0.079030 
      0.385562         7.3990         0.0000         0.0000         0.0000 
        0.0170         0.0260         0.0000         0.4610         3.4052 
      0.335858         2.2937         0.6455        -1.5630      -999.2500 
     -999.2500      -999.2500
       4969.00 
     -999.2500       0.068750    -999.250000        10.0550   -999.2500000 
     0.0100000        88.4400    -999.250000        88.4400         0.6370 
        0.6770       0.068750         0.4410         0.4410    -999.250000 
     -999.2500         0.0000      -999.2500      -999.2500       0.073170 
      0.397570         6.8750         0.0000         0.0000         0.0000 
        0.0000         0.0000         0.0000         0.4410         3.3910 
      0.342157         2.2770         0.6230        -0.3130      -999.2500 
     -999.2500      -999.2500
       4969.50 
     -999.2500       0.068010    -999.250000         9.9620   -999.2500000 
     0.0123000        90.0837    -999.250000        90.0837         0.6570 
        0.7045       0.068010         0.4320         0.4320    -999.250000 
     -999.2500         0.0000      -999.2500      -999.2500       0.072330 
      0.404233         6.8010         0.0000         0.0000         0.0000 
        0.0000         0.0000         0.0000         0.4320         3.2888 
      0.349472         2.2750         0.6207         1.0942      -999.2500 
     -999.2500      -999.2500
       4970.00 
     -999.2500       0.068220    -999.250000         9.9270   -999.2500000 
     0.0140000        89.8670    -999.250000        89.8670         0.6670 
        0.7170       0.068220         0.4240         0.4240    -999.250000 
     -999.2500         0.0000      -999.2500      -999.2500       0.072460 
      0.392500         6.8220         0.0000         0.0000         0.0000 
        0.0000         0.0000         0.0000         0.4240         3.2730 
      0.349663         2.2750         0.6440         1.8750      -999.2500 
     -999.2500      -999.2500
       4970.50 
     -999.2500       0.069530    -999.250000        10.0450   -999.2500000 
     0.0132000        89.6705    -999.250000        89.6705         0.6772 
        0.7230       0.069530         0.4220         0.4220    -999.250000 
     -999.2500      -999.2500      -999.2500      -999.2500       0.073750 
      0.378053         6.9530         0.0000         0.0000         0.0000 
        0.0000         0.0000         0.0000         0.4220         3.1812 
      0.333472         2.2870         0.6792         0.7603      -999.2500 
     -999.2500      -999.2500
       4971.00 
     -999.2500       0.070185    -999.250000        10.0900   -999.2500000 
     0.0090000        85.4180    -999.250000        85.4180         0.6830 
        0.7230       0.070185         0.4210         0.4210    -999.250000 
     -999.2500      -999.2500      -999.2500      -999.2500       0.074395 
      0.376970         7.0185         0.0000         0.0000         0.0000 
        0.0000         0.0000         0.0000         0.4210         3.1420 
      0.332433         2.2920         0.6900        -0.4380      -999.2500 
     -999.2500      -999.2500
       4971.50 
     -999.2500       0.070840    -999.250000        10.1055   -999.2500000 
     0.0107000        88.6632    -999.250000        88.6632         0.6847 
        0.7193       0.070840         0.4200         0.4200    -999.250000 
     -999.2500         0.0000      -999.2500      -999.2500       0.075040 
      0.383943         7.0840         0.0000         0.0000         0.0000 
        0.0000         0.0000         0.0000         0.4200         3.0657 
      0.327034         2.3032         0.7223        -1.6980      -999.2500 
     -999.2500      -999.2500
       4972.00 
     -999.2500       0.074820    -999.250000        10.0680   -999.2500000 
     0.0090000        90.6140    -999.250000        90.6140         0.6830 
        0.7160       0.074820         0.4540         0.4540    -999.250000 
     -999.2500         0.0000      -999.2500      -999.2500       0.079360 
      0.400510         7.4820         0.0000         0.0000         0.0000 
        0.0000         0.0000         0.0000         0.4540         3.2340 
      0.338612         2.2940         0.7340        -4.5630      -999.2500 
     -999.2500      -999.2500
       4972.50 
     -999.2500       0.089830    -999.250000        10.1642   -999.2500000 
     0.0068000        97.6813    -999.250000        97.6813         0.6727 
        0.7095       0.089830         0.6040         0.6040    -999.250000 
     -999.2500         0.0000      -999.2500      -999.2500       0.095870 
      0.409515         8.9830         0.0000         0.0000         0.0000 
        0.0000         0.0000         0.0000         0.6040         3.3300 
      0.339675         2.2887         0.7682        -3.4897      -999.2500 
     -999.2500      -999.2500
