~Version Information Block
VERS .                  2.0:  CWLS LOG ASCII STANDARD - VERSION 2.0
WRAP .                  YES:  Multiple lines per depth step
~Well Information Block
#MNEM.UNIT        Data Type   Information
#---------- ----------------  -----------
STRT .FT            4000.00:  START DEPTH
STOP .FT            5000.00:  STOP DEPTH
STEP .FT               0.50:  STEP
NULL .              -999.25:  NULL VALUE
COMP .     PENNZOIL EXPLORATION & PRODUCTION COMPANY:  COMPANY
WELL .              EXAMPLE:  WELL
FLD  .     EUGENE ISLAND BLOCK 330:  FIELD
LOC  .     5150 FSL & 8006 FEL:  LOCATION
CTRY .                  USA:  COUNTRY
STAT .            LOUISIANA:  STATE
CNTY .             OFFSHORE:  COUNTY
SRVC .         PetCom, Inc.:  SERVICE COMPANY
DATE .     14-MAR-96 @ 10:58:58:  DATE
API  .                     :  API NUMBER
UWI  .                     :  UNIQUE WELL ID
~Curve Information Block
#MNEM.UNIT         API CODE   Curve Description
#---------- ----------------  -----------------
DEPTH.FT                   :  
BS   .IN                   :  10
BVI  .V/V                  :  MBVI/100
BVW  .V/V                  :  SW*MPHI/100
CALI .IN                   :  
CBW  .V/V                  :  Clay-Bound Water
DRHO .G/C3                 :  
DT   .USEC/F                 :  
FFI  .V/V                  :  MFFI/100
GR   .GAPI                 :  
ILD  .OHMM                 :  
ILM  .OHMM                 :  
MBVI .V/V                  :  MBVI/100
MFFI .%                  PU:  
MFFI .%                    :  MFFI/100
MFFI .V/V                  :  MFFI/100
MGR  .GAPI              CPS:  
MGR  .                     :  
MNA  .                     :  m* apparent,  valid in wet intervals for m* trend
MPERM.MD                 MD:  
MPHI .V/V                  :  MPHI/100
NPHI .V/V                  :  
P1   .%                  PU:  
P2   .%                  PU:  
P3   .%                  PU:  
P4   .%                  PU:  
P5   .%                  PU:  
P6   .%                  PU:  
P7   .%                  PU:  
P8   .%                  PU:  
PEF  .B/E                  :  
PHIX .V/V                  :  
RHOB .G/C3                 :  
RMLL .OHMM                 :  
SP   .MV                   :  
SW   .V/V                  :  
T2_DIST.MSEC                 :  NMR T2 DISTRIBUTION
VSH  .V/V                  :  Volume of Shale used in Analysis
~Other Information Block
~Ascii Log Data
# ...
       4917.00 
     -999.2500       0.000000    -999.250000        10.0460   -999.2500000 
    -0.0130000        38.9350    -999.250000        38.9350         0.1830 
        0.1880       0.000000         0.0000         0.0000    -999.250000 
     -999.2500        56.4350      -999.2500      -999.2500       0.000000 
      0.371730         0.0000         0.0000         0.0000         0.0000 
        0.0000         0.0000         0.0000         0.0000         2.6580 
      0.386792         2.0680         0.1580       -48.3750      -999.2500 
     -999.2500      -999.2500
       4917.50 
     -999.2500       0.000000    -999.250000        10.0530   -999.2500000 
    -0.0207000        43.1832    -999.250000        43.1832         0.1818 
        0.1868       0.000000         0.0000         0.0000    -999.250000 
     -999.2500        56.5010      -999.2500      -999.2500       0.000000 
      0.372262         0.0000         0.0000         0.0000         0.0000 
        0.0000         0.0000         0.0000         0.0000         2.6770 
      0.387829         2.0605         0.1560       -49.2605      -999.2500 
     -999.2500      -999.2500
       4918.00 
     -999.2500       0.000000    -999.250000        10.0330   -999.2500000 
    -0.0240000        46.9690    -999.250000        46.9690         0.1810 
        0.1860       0.000000         0.0000         0.0000    -999.250000 
     -999.2500        55.7880      -999.2500      -999.2500       0.000000 
      0.374020         0.0000         0.0000         0.0000         0.0000 
        0.0000         0.0000         0.0000         0.0000         2.7020 
      0.388639         2.0580         0.1560       -49.3130      -999.2500 
     -999.2500      -999.2500
       4918.50 
     -999.2500       0.000000    -999.250000        10.0617   -999.2500000 
    -0.0225000        47.7807    -999.250000        47.7807         0.1810 
        0.1862       0.000000         0.0000         0.0000    -999.250000 
     -999.2500        54.8940      -999.2500      -999.2500       0.000000 
      0.402560         0.0000         0.0000         0.0000         0.0000 
        0.0000         0.0000         0.0000         0.0000         2.7413 
      0.403936         2.0693         0.1638       -48.8755      -999.2500 
     -999.2500      -999.2500
       4919.00 
     -999.2500       0.000000    -999.250000        10.0800   -999.2500000 
    -0.0200000        46.4940    -999.250000        46.4940         0.1810 
        0.1870       0.000000         0.0000         0.0000    -999.250000 
     -999.2500        54.2310      -999.2500      -999.2500       0.000000 
      0.411060         0.0000         0.0000         0.0000         0.0000 
        0.0000         0.0000         0.0000         0.0000         2.7180 
      0.396656         2.0810         0.1730       -49.1880      -999.2500 
     -999.2500      -999.2500
       4919.50 
     -999.2500      -0.005440    -999.250000        10.0282   -999.2500000 
    -0.0167000        48.2188    -999.250000        48.2188         0.1810 
        0.1872      -0.005440        -0.2640        -0.2640    -999.250000 
     -999.2500        56.7280      -999.2500      -999.2500      -0.008080 
      0.428553        -0.5440         0.0000         0.0000         0.0000 
       -0.1740        -0.0900         0.0000         0.0000         2.7863 
      0.396069         2.0857         0.1685       -47.8233      -999.2500 
     -999.2500      -999.2500
       4920.00 
     -999.2500       0.000000    -999.250000        10.0040   -999.2500000 
    -0.0150000        49.0580    -999.250000        49.0580         0.1810 
        0.1880       0.000000         0.0000         0.0000    -999.250000 
     -999.2500        53.5200      -999.2500      -999.2500       0.000000 
      0.436270         0.0000         0.0000         0.0000         0.0000 
        0.0000         0.0000         0.0000         0.0000         2.8530 
      0.396331         2.0840         0.1860       -47.8750      -999.2500 
     -999.2500      -999.2500
       4920.50 
     -999.2500       0.000000    -999.250000        10.0127   -999.2500000 
    -0.0125000        45.9138    -999.250000        45.9138         0.1810 
        0.1878       0.000000         0.0000         0.0000    -999.250000 
     -999.2500        52.7770      -999.2500      -999.2500       0.000000 
      0.424297         0.0000         0.0000         0.0000         0.0000 
        0.0000         0.0000         0.0000         0.0000         2.7188 
      0.396213         2.0805         0.1920       -48.2608      -999.2500 
     -999.2500      -999.2500
       4921.00 
     -999.2500       0.000000    -999.250000         9.9960   -999.2500000 
    -0.0100000        40.5730    -999.250000        40.5730         0.1810 
        0.1870       0.000000         0.0000         0.0000    -999.250000 
     -999.2500        52.0690      -999.2500      -999.2500       0.000000 
      0.435880         0.0000         0.0000         0.0000         0.0000 
        0.0000         0.0000         0.0000         0.0000         2.6930 
      0.396961         2.0780         0.2020       -48.6250      -999.2500 
     -999.2500      -999.2500
       4921.50 
     -999.2500       0.000000    -999.250000        10.0243   -999.2500000 
    -0.0113000        38.6622    -999.250000        38.6622         0.1808 
        0.1858       0.000000         0.0000         0.0000    -999.250000 
     -999.2500        51.5740      -999.2500      -999.2500       0.000000 
      0.396577         0.0000         0.0000         0.0000         0.0000 
        0.0000         0.0000         0.0000         0.0000         2.6108 
      0.394268         2.0840         0.1717       -49.8125      -999.2500 
     -999.2500      -999.2500
       4922.00 
     -999.2500       0.004010    -999.250000        10.0410   -999.2500000 
    -0.0080000        37.6880    -999.250000        37.6880         0.1800 
        0.1850       0.004010         0.5400         0.5400    -999.250000 
     -999.2500        51.8100      -999.2500      -999.2500       0.009410 
      0.388310         0.4010         0.0000         0.0000         0.0000 
        0.4150         0.1250         0.0000         0.0000         2.7000 
      0.393759         2.0890         0.1600       -50.1250      -999.2500 
     -999.2500      -999.2500
       4922.50 
     -999.2500      -0.005780    -999.250000        10.0447   -999.2500000 
    -0.0092000        39.3073    -999.250000        39.3073         0.1798 
        0.1838      -0.005780        -0.3310        -0.3310    -999.250000 
     -999.2500        53.2310      -999.2500      -999.2500      -0.009090 
      0.364808        -0.5780         0.0000         0.0000         0.0000 
       -0.1950        -0.1350         0.0000         0.0000         2.6355 
      0.379474         2.0848         0.1587       -49.9272      -999.2500 
     -999.2500      -999.2500
       4923.00 
     -999.2500       0.037280    -999.250000        10.0530   -999.2500000 
    -0.0100000        39.2240    -999.250000        39.2240         0.1790 
        0.1830       0.037280         4.6070         4.6070    -999.250000 
     -999.2500        52.4450      -999.2500      -999.2500       0.083350 
      0.374750         3.7280         0.0000         0.0000         0.0000 
        3.4820         1.1250         0.0000         0.0000         2.6530 
      0.387020         2.0740         0.1620       -50.1880      -999.2500 
     -999.2500      -999.2500
       4923.50 
     -999.2500       0.081100    -999.250000        10.0180   -999.2500000 
    -0.0122000        39.5962    -999.250000        39.5962         0.1790 
        0.1832       0.081100         9.3150         9.3150    -999.250000 
     -999.2500        52.4370      -999.2500      -999.2500       0.174250 
      0.396315         8.1100         0.0000         0.0000         0.0000 
        6.8470         2.4680         0.0000         0.0000         2.6528 
      0.404207         2.0680         0.1615       -49.7083      -999.2500 
     -999.2500      -999.2500
