~Version Information Block
VERS .                  2.0:  CWLS LOG ASCII STANDARD - VERSION 2.0
WRAP .                  YES:  Multiple lines per depth step
~Well Information Block
#MNEM.UNIT        Data Type   Information
#---------- ----------------  -----------
STRT .FT            4000.00:  START DEPTH
STOP .FT            5000.00:  STOP DEPTH
STEP .FT               0.50:  STEP
NULL .              -999.25:  NULL VALUE
COMP .     PENNZOIL EXPLORATION & PRODUCTION COMPANY:  COMPANY
WELL .              EXAMPLE:  WELL
FLD  .     EUGENE ISLAND BLOCK 330:  FIELD
LOC  .     5150 FSL & 8006 FEL:  LOCATION
CTRY .                  USA:  COUNTRY
STAT .            LOUISIANA:  STATE
CNTY .             OFFSHORE:  COUNTY
SRVC .         PetCom, Inc.:  SERVICE COMPANY
DATE .     14-MAR-96 @ 10:58:58:  DATE
API  .                     :  API NUMBER
UWI  .                     :  UNIQUE WELL ID
~Curve Information Block
#MNEM.UNIT         API CODE   Curve Description
#---------- ----------------  -----------------
DEPTH.FT                   :  
BS   .IN                   :  10
BVI  .V/V                  :  MBVI/100
BVW  .V/V                  :  SW*MPHI/100
CALI .IN                   :  
CBW  .V/V                  :  Clay-Bound Water
DRHO .G/C3                 :  
DT   .USEC/F                 :  
FFI  .V/V                  :  MFFI/100
GR   .GAPI                 :  
ILD  .OHMM                 :  
ILM  .OHMM                 :  
MBVI .V/V                  :  MBVI/100
MFFI .%                  PU:  
MFFI .%                    :  MFFI/100
MFFI .V/V                  :  MFFI/100
MGR  .GAPI              CPS:  
MGR  .                     :  
MNA  .                     :  m* apparent,  valid in wet intervals for m* trend
MPERM.MD                 MD:  
MPHI .V/V                  :  MPHI/100
NPHI .V/V                  :  
P1   .%                  PU:  
P2   .%                  PU:  
P3   .%                  PU:  
P4   .%                  PU:  
P5   .%                  PU:  
P6   .%                  PU:  
P7   .%                  PU:  
P8   .%                  PU:  
PEF  .B/E                  :  
PHIX .V/V                  :  
RHOB .G/C3                 :  
RMLL .OHMM                 :  
SP   .MV                   :  
SW   .V/V                  :  
T2_DIST.MSEC                 :  NMR T2 DISTRIBUTION
VSH  .V/V                  :  Volume of Shale used in Analysis
~Other Information Block
~Ascii Log Data
# ...
       4560.00 
       10.0000       0.115450       0.108855        10.0550      0.0433098 
    -0.0260000        53.6270       0.213280        53.6270         2.3630 
        2.3600       0.115450        21.3280        21.3280       0.213280 
       78.2330        77.6660         4.6972       186.2021       0.328730 
      0.393800        11.4350         0.0000         0.1110         9.2670 
        8.6940         1.5390         0.3080         1.5200         3.5660 
      0.403038         2.0740         2.6180       -40.5000         0.3311 
        0.0000         0.2033
       4560.50 
       10.0000       0.113875       0.100292        10.0352      0.0451223 
    -0.0238000        57.1682       0.217535        57.1682         2.7837 
        2.9675       0.113875        21.7535        21.7535       0.217535 
       77.5500      -999.2500         4.9261       259.8094       0.331410 
      0.409902        11.2180         0.0000         0.1700         8.5425 
        9.1180         2.5745         0.4755         1.0430         3.6518 
      0.394215         2.0852         2.7247       -38.9897         0.3026 
        0.0000         0.2453
       4561.00 
       10.0000       0.112300       0.095084        10.0360      0.0470835 
    -0.0230000        54.8940       0.221790        54.8940         3.0970 
        3.5100       0.112300        22.1790        22.1790       0.221790 
       76.4830        76.4290         5.1029       311.9995       0.334090 
      0.420010        11.0010         0.0000         0.2290         7.8180 
        9.5420         3.6100         0.6430         0.5660         3.7010 
      0.396103         2.0860         3.2180       -40.8130         0.2846 
        0.0000         0.2685
       4561.50 
       10.0000       0.108770       0.091542        10.0215      0.0482503 
    -0.0255000        55.3013       0.227070        55.3013         3.3413 
        4.2787       0.108770        22.7070        22.7070       0.227070 
       73.9705        74.9260         5.2250       377.1579       0.335840 
      0.411970        10.0190         0.0000         0.8590         6.3450 
        9.8600         5.6380         0.7640         0.1000         3.6542 
      0.405446         2.0615         4.8568       -39.0733         0.2726 
        0.0000         0.2379
       4562.00 
       10.0000       0.112380       0.091725        10.0390      0.0453873 
    -0.0280000        53.8880       0.222230        53.8880         3.3280 
        4.6020       0.112380        22.2230        22.2230       0.222230 
       72.8380        73.2150         5.1571       411.2438       0.334610 
      0.391720         8.7850         0.0000         2.4530         3.8800 
       10.5900         7.2220         0.5310         0.0000         3.4850 
      0.407331         2.0440         7.3060       -41.6250         0.2741 
        0.0000         0.1785
       4562.50 
       10.0000       0.108650       0.091912        10.0268      0.0405845 
    -0.0287000        54.4825       0.222040        54.4825         3.3145 
        4.2053       0.108650        22.2040        22.2040       0.222040 
       71.5770        72.4190         5.0224       480.3535       0.330690 
      0.368550         7.8400         0.0000         3.0240         2.7070 
       11.1720         7.6790         0.6400         0.0070         3.2908 
      0.398921         2.0395         8.2563       -43.9900         0.2779 
        0.0000         0.1183
       4563.00 
       10.0000       0.093230       0.092365        10.0610      0.0395588 
    -0.0270000        53.8150       0.233790        53.8150         3.2820 
        3.6220       0.093230        23.3790        23.3790       0.233790 
       71.3950        73.1460         4.9475       532.8663       0.327010 
      0.363450         7.4360         0.0000         1.8860         4.1680 
       10.5030         7.4320         1.2640         0.0120         3.1950 
      0.388797         2.0470         6.1130       -43.6250         0.2825 
        0.0000         0.1139
       4563.50 
       10.0000       0.090155       0.093987        10.0543      0.0439412 
    -0.0232000        58.3303       0.237575        58.3303         3.1697 
        2.9082       0.090155        23.7575        23.7575       0.237575 
       73.6265      -999.2500         4.9913       617.7745       0.327725 
      0.380582         7.6350         0.0000         1.3800         3.9895 
       11.3900         7.0815         1.2195         0.0775         3.3282 
      0.396940         2.0537         2.9617       -41.7505         0.2868 
        0.0000         0.1652
       4564.00 
       10.0000       0.087080       0.095455        10.0410      0.0480092 
    -0.0190000        59.7120       0.241360        59.7120         3.0730 
        2.5690       0.087080        24.1360        24.1360       0.241360 
       76.0320        75.2040         5.0339       665.6661       0.328440 
      0.397340         7.8340         0.0000         0.8740         3.8110 
       12.2770         6.7310         1.1750         0.1430         3.3740 
      0.405132         2.0620         2.0850       -40.1880         0.2906 
        0.0000         0.2153
       4564.50 
       10.0000       0.085310       0.098443        10.0062      0.0474008 
    -0.0193000        58.9595       0.245220        58.9595         2.8893 
        2.3943       0.085310        24.5220        24.5220       0.245220 
       79.4075        77.6190         4.9889       708.6180       0.330530 
      0.394850         8.2160         0.0000         0.3150         2.4880 
       16.1830         3.9890         0.5190         1.3420         3.5767 
      0.405905         2.0538         2.0432       -37.9063         0.2978 
        0.0000         0.2010
       4565.00 
       10.0000       0.083780       0.101535        10.0170      0.0497717 
    -0.0160000        54.6470       0.249690        54.6470         2.7160 
        2.3960       0.083780        24.9690        24.9690       0.249690 
       80.3260        79.1610         5.0014       718.2538       0.333470 
      0.402850         8.3780         0.0000         0.0000         2.7480 
       17.9370         1.6630         0.1970         2.4240         3.6200 
      0.405970         2.0480         2.2140       -37.4380         0.3045 
        0.0000         0.2168
       4565.50 
       10.0000       0.089030       0.106828        10.0183      0.0477175 
    -0.0163000        52.9193       0.251990        52.9193         2.4535 
        2.4983       0.089030        25.1990        25.1990       0.251990 
       80.1430        79.3810         4.9622       699.5117       0.341020 
      0.405595         8.9030         0.0000         0.0000         4.0750 
       15.8470         3.5720         0.1350         1.5710         3.6838 
      0.408525         2.0367         2.7780       -38.7605         0.3133 
        0.0000         0.2018
       4566.00 
       10.0000       0.093600       0.110073        10.0200      0.0471209 
    -0.0180000        55.2410       0.254650        55.2410         2.3110 
        2.5450       0.093600        25.4650        25.4650       0.254650 
       79.3480        78.7220         4.9846       658.6032       0.348250 
      0.417270         9.3600         0.0000         0.0000         6.7370 
       12.0460         5.5480         0.5660         0.5670         3.6180 
      0.411721         2.0350         3.1330       -40.0630         0.3161 
        0.0000         0.2157
       4566.50 
       10.0000       0.099235       0.113916        10.0503      0.0394924 
    -0.0217000        56.3407       0.253700        56.3407         2.1577 
        2.4063       0.099235        25.3700        25.3700       0.253700 
       77.5930      -999.2500         4.8526       583.6143       0.352940 
      0.410443         9.8500         0.0000         0.0740         7.5450 
       11.1475         5.4235         0.6835         0.5700         3.7088 
      0.408345         2.0393         2.7870       -41.1250         0.3228 
        0.0000         0.1797
