~Version Information Block
VERS .                  2.0:  CWLS LOG ASCII STANDARD - VERSION 2.0
WRAP .                  YES:  Multiple lines per depth step
~Well Information Block
#MNEM.UNIT        Data Type   Information
#---------- ----------------  -----------
STRT .FT            4000.00:  START DEPTH
STOP .FT            5000.00:  STOP DEPTH
STEP .FT               0.50:  STEP
NULL .              -999.25:  NULL VALUE
COMP .     PENNZOIL EXPLORATION & PRODUCTION COMPANY:  COMPANY
WELL .              EXAMPLE:  WELL
FLD  .     EUGENE ISLAND BLOCK 330:  FIELD
LOC  .     5150 FSL & 8006 FEL:  LOCATION
CTRY .                  USA:  COUNTRY
STAT .            LOUISIANA:  STATE
CNTY .             OFFSHORE:  COUNTY
SRVC .         PetCom, Inc.:  SERVICE COMPANY
DATE .     14-MAR-96 @ 10:58:58:  DATE
API  .                     :  API NUMBER
UWI  .                     :  UNIQUE WELL ID
~Curve Information Block
#MNEM.UNIT         API CODE   Curve Description
#---------- ----------------  -----------------
DEPTH.FT                   :  
BS   .IN                   :  10
BVI  .V/V                  :  MBVI/100
BVW  .V/V                  :  SW*MPHI/100
CALI .IN                   :  
CBW  .V/V                  :  Clay-Bound Water
DRHO .G/C3                 :  
DT   .USEC/F                 :  
FFI  .V/V                  :  MFFI/100
GR   .GAPI                 :  
ILD  .OHMM                 :  
ILM  .OHMM                 :  
MBVI .V/V                  :  MBVI/100
MFFI .%                  PU:  
MFFI .%                    :  MFFI/100
MFFI .V/V                  :  MFFI/100
MGR  .GAPI              CPS:  
MGR  .                     :  
MNA  .                     :  m* apparent,  valid in wet intervals for m* trend
MPERM.MD                 MD:  
MPHI .V/V                  :  MPHI/100
NPHI .V/V                  :  
P1   .%                  PU:  
P2   .%                  PU:  
P3   .%                  PU:  
P4   .%                  PU:  
P5   .%                  PU:  
P6   .%                  PU:  
P7   .%                  PU:  
P8   .%                  PU:  
PEF  .B/E                  :  
PHIX .V/V                  :  
RHOB .G/C3                 :  
RMLL .OHMM                 :  
SP   .MV                   :  
SW   .V/V                  :  
T2_DIST.MSEC                 :  NMR T2 DISTRIBUTION
VSH  .V/V                  :  Volume of Shale used in Analysis
~Other Information Block
~Ascii Log Data
# ...
       4686.00 
       10.0000       0.220410       0.332018        11.6770      0.0001000 
    -0.0180000        58.2340       0.162265        58.2340         0.2540 
        0.2690       0.220410        16.2265        16.2265       0.162265 
       70.1250      -999.2500         2.2313        93.4779       0.382680 
      0.386690        15.4195         1.5295         5.0920        14.0720 
        0.5820         0.0000         0.0000         1.5730         4.2320 
      0.380828         2.1530         0.3030       -40.9380         0.8676 
        0.0000         0.0125
       4686.50 
       10.0000       0.207230       0.336690        10.7510      0.0001000 
    -0.0177000        57.3883       0.180980        57.3883         0.2470 
        0.2618       0.207230        18.0980        18.0980       0.180980 
       68.3245        67.6960         2.2027       167.8130       0.388220 
      0.380082        16.0920         0.1970         4.4340        15.8860 
        0.4860         0.0000         0.0000         1.7270         3.9498 
      0.374554         2.1418         0.3042       -42.4275         0.8673 
        0.0000         0.0000
       4687.00 
       10.0000       0.187160       0.340151        10.4310      0.0001000 
    -0.0210000        56.3800       0.206080        56.3800         0.2420 
        0.2560       0.187160        20.6080        20.6080       0.206080 
       66.9560        65.8830         2.1995       201.7074       0.393240 
      0.373390        16.6930         0.0000         2.0230        18.4790 
        0.3340         0.0000         0.0000         1.7950         3.7540 
      0.368744         2.1210         0.3400       -44.2500         0.8650 
        0.0000         0.0000
       4687.50 
       10.0000       0.187480       0.346658        10.7937      0.0001000 
    -0.0145000        55.6072       0.203500        55.6072         0.2330 
        0.2467       0.187480        20.3500        20.3500       0.203500 
       65.0680        64.6340         2.0962       211.2911       0.390970 
      0.344180        16.0650         0.0000         2.6830        15.9030 
        2.9260         0.2180         0.0190         1.2830         3.8265 
      0.366026         2.1102         0.3425       -46.7608         0.8867 
        0.0000         0.0000
       4688.00 
       10.0000       0.182910       0.350438        11.2770      0.0001000 
    -0.0170000        53.1130       0.204800        53.1130         0.2280 
        0.2400       0.182910        20.4800        20.4800       0.204800 
       63.7390        64.9080         2.0248       212.6503       0.387710 
      0.322630        15.0710         0.0990         3.1210        12.1740 
        7.1810         0.6190         0.0220         0.4830         3.5740 
      0.350015         2.1060         0.2700       -48.3750         0.9039 
        0.0000         0.0000
       4688.50 
       10.0000       0.162250       0.354983        10.0168      0.0001000 
    -0.0148000        50.6492       0.223820        50.6492         0.2222 
        0.2298       0.162250        22.3820        22.3820       0.223820 
       63.6215        66.1990         2.0899       251.4631       0.386070 
      0.363377        14.4550         0.1690         1.6010        10.8090 
       10.6660         0.7400         0.0070         0.1590         3.2842 
      0.365393         2.1193         0.1593       -50.0838         0.9195 
        0.0000         0.0000
       4689.00 
       10.0000       0.147255       0.358386         9.9860      0.0001000 
    -0.0140000        48.0200       0.235985        48.0200         0.2180 
        0.2240       0.147255        23.5985        23.5985       0.235985 
       64.7450      -999.2500         2.1375       325.4191       0.383240 
      0.392010        13.7305         0.1340         0.8610        11.1245 
       11.5680         0.5565         0.0035         0.3455         3.1800 
      0.383098         2.1310         0.1210       -50.1880         0.9351 
        0.0000         0.0274
       4689.50 
       10.0000       0.132260       0.363679        10.0098      0.0001000 
    -0.0127000        47.2600       0.248150        47.2600         0.2117 
        0.2182       0.132260        24.8150        24.8150       0.248150 
       68.9580        67.0040         2.1360       438.8388       0.380410 
      0.401792        13.0060         0.0990         0.1210        11.4400 
       12.4700         0.3730         0.0000         0.5320         3.5310 
      0.382870         2.1328         0.2277       -48.8858         0.9560 
        0.0000         0.0668
       4690.00 
       10.0000       0.099130       0.363510        10.0990      0.0001000 
    -0.0160000        47.2600       0.264380        47.2600         0.2050 
        0.2140       0.099130        26.4380        26.4380       0.264380 
       68.8600        66.2580         2.0422       583.3067       0.363510 
      0.375300         9.5070         0.0000         0.4060        12.9470 
       11.6980         0.4960         0.1150         1.1830         3.8160 
      0.380420         2.1220         0.3710       -48.6250         1.0000 
        0.0000         0.0368
       4690.50 
       10.0000       0.085710       0.349620        10.0787      0.0092989 
    -0.0167000        47.7723       0.263920        47.7723         0.1983 
        0.2078       0.085710        26.3920        26.3920       0.263920 
       65.3920        64.8180         2.0393       796.3972       0.349620 
      0.371052         5.9090         0.7590         1.9030        12.6220 
       10.0870         2.2400         0.4490         0.9940         3.7042 
      0.369599         2.1057         0.3485       -46.7400         1.0000 
        0.0000         0.0670
       4691.00 
       10.0000       0.099530       0.346490         9.8870      0.0171723 
    -0.0150000        47.9740       0.246950        47.9740         0.1950 
        0.2020       0.099530        24.6950        24.6950       0.246950 
       63.3850        63.8780         2.0709       839.2215       0.346490 
      0.383010         2.8060         4.4340         2.7130         7.1000 
       13.7740         3.1870         0.4220         0.2130         3.5250 
      0.383134         2.1040         0.1810       -47.0000         1.0000 
        0.0000         0.1141
       4691.50 
       10.0000       0.107440       0.349750         9.8857      0.0256634 
    -0.0182000        45.8165       0.242320        45.8165         0.1927 
        0.1940       0.107440        24.2320        24.2320       0.242320 
       62.7075        63.9730         2.1478       720.7297       0.349750 
      0.397977         1.2320         7.4750         2.0360         3.0020 
       18.3830         2.7520         0.0880         0.0060         3.5000 
      0.394188         2.0843         0.1217       -49.5838         1.0000 
        0.0000         0.1507
       4692.00 
       10.0000       0.100230       0.351855         9.9190      0.0146716 
    -0.0240000        45.9290       0.251635        45.9290         0.1910 
        0.1890       0.100230        25.1635        25.1635       0.251635 
       63.3730      -999.2500         2.0593       703.6036       0.351855 
      0.366810         2.3645         6.0695         1.5880         3.6270 
       18.8100         2.6790         0.0440         0.0030         3.5250 
      0.384971         2.0710         0.1250       -49.6880         1.0000 
        0.0000         0.0467
       4692.50 
       10.0000       0.093020       0.353960        10.0048      0.0067199 
    -0.0203000        48.7408       0.260950        48.7408         0.1900 
        0.1872       0.093020        26.0950        26.0950       0.260950 
       64.6515        65.0640         1.9999      1043.9280       0.353960 
      0.354353         3.4970         4.6640         1.1400         4.2520 
       19.2370         2.6060         0.0000         0.0000         3.4382 
      0.372894         2.0762         0.1685       -50.9588         1.0000 
        0.0000         0.0012
