~Version Information Block
VERS .                  2.0:  CWLS LOG ASCII STANDARD - VERSION 2.0
WRAP .                  YES:  Multiple lines per depth step
~Well Information Block
#MNEM.UNIT        Data Type   Information
#---------- ----------------  -----------
STRT .FT            4000.00:  START DEPTH
STOP .FT            5000.00:  STOP DEPTH
STEP .FT               0.50:  STEP
NULL .              -999.25:  NULL VALUE
COMP .     PENNZOIL EXPLORATION & PRODUCTION COMPANY:  COMPANY
WELL .              EXAMPLE:  WELL
FLD  .     EUGENE ISLAND BLOCK 330:  FIELD
LOC  .     5150 FSL & 8006 FEL:  LOCATION
CTRY .                  USA:  COUNTRY
STAT .            LOUISIANA:  STATE
CNTY .             OFFSHORE:  COUNTY
SRVC .         PetCom, Inc.:  SERVICE COMPANY
DATE .     14-MAR-96 @ 10:58:58:  DATE
API  .                     :  API NUMBER
UWI  .                     :  UNIQUE WELL ID
~Curve Information Block
#MNEM.UNIT         API CODE   Curve Description
#---------- ----------------  -----------------
DEPTH.FT                   :  
BS   .IN                   :  10
BVI  .V/V                  :  MBVI/100
BVW  .V/V                  :  SW*MPHI/100
CALI .IN                   :  
CBW  .V/V                  :  Clay-Bound Water
DRHO .G/C3                 :  
DT   .USEC/F                 :  
FFI  .V/V                  :  MFFI/100
GR   .GAPI                 :  
ILD  .OHMM                 :  
ILM  .OHMM                 :  
MBVI .V/V                  :  MBVI/100
MFFI .%                  PU:  
MFFI .%                    :  MFFI/100
MFFI .V/V                  :  MFFI/100
MGR  .GAPI              CPS:  
MGR  .                     :  
MNA  .                     :  m* apparent,  valid in wet intervals for m* trend
MPERM.MD                 MD:  
MPHI .V/V                  :  MPHI/100
NPHI .V/V                  :  
P1   .%                  PU:  
P2   .%                  PU:  
P3   .%                  PU:  
P4   .%                  PU:  
P5   .%                  PU:  
P6   .%                  PU:  
P7   .%                  PU:  
P8   .%                  PU:  
PEF  .B/E                  :  
PHIX .V/V                  :  
RHOB .G/C3                 :  
RMLL .OHMM                 :  
SP   .MV                   :  
SW   .V/V                  :  
T2_DIST.MSEC                 :  NMR T2 DISTRIBUTION
VSH  .V/V                  :  Volume of Shale used in Analysis
~Other Information Block
~Ascii Log Data
# ...
       4616.00 
       10.0000       0.115330       0.308607        10.0570      0.0057639 
    -0.0140000        45.2910       0.230550        45.2910         0.2940 
        0.3220       0.115330        23.0550        23.0550       0.230550 
       73.0230        73.7350         2.3598       362.1385       0.345890 
      0.366320         8.0650         1.9260         1.5430        13.0960 
        8.1290         0.8040         0.0280         0.9980         3.4220 
      0.365472         2.1240         0.4670       -55.7500         0.8922 
        0.0000         0.0638
       4616.50 
       10.0000       0.100240       0.314159        10.1585      0.0191510 
    -0.0145000        48.2103       0.244530        48.2103         0.2837 
        0.3013       0.100240        24.4530        24.4530       0.244530 
       73.7530        74.3140         2.4416       371.8124       0.344780 
      0.388160         8.2340         0.2200         1.5700        17.6460 
        4.4520         0.4350         0.0280         1.8930         2.9723 
      0.391756         2.1103         0.3313       -56.7608         0.9112 
        0.0000         0.1356
       4617.00 
       10.0000       0.093350       0.317936        10.1560      0.0138577 
    -0.0120000        51.1370       0.250135        51.1370         0.2770 
        0.2880       0.093350        25.0135        25.0135       0.250135 
       74.3400      -999.2500         2.3614       384.7482       0.343490 
      0.379910         8.0800         0.1100         1.1445        19.0100 
        3.5385         0.2945         0.0190         2.1520         2.6990 
      0.381631         2.1220         0.2980       -55.8750         0.9256 
        0.0000         0.1138
       4617.50 
       10.0000       0.086460       0.322031        10.1417      0.0131044 
    -0.0115000        53.2480       0.255740        53.2480         0.2700 
        0.2762       0.086460        25.5740        25.5740       0.255740 
       74.6380        75.3000         2.3217       408.0984       0.342200 
      0.378848         7.9260         0.0000         0.7190        20.3740 
        2.6250         0.1540         0.0100         2.4110         2.8582 
      0.375286         2.1275         0.2515       -55.7088         0.9411 
        0.0000         0.1145
       4618.00 
       10.0000       0.083740       0.325054        10.1150      0.0114379 
    -0.0090000        52.9080       0.258820        52.9080         0.2650 
        0.2720       0.083740        25.8820        25.8820       0.258820 
       74.8550        75.9390         2.2911       425.6428       0.342570 
      0.377040         8.3600         0.0000         0.0140        20.4910 
        3.0080         0.0000         0.0000         2.3830         3.0440 
      0.374104         2.1300         0.1990       -55.1880         0.9489 
        0.0000         0.1077
       4618.50 
       10.0000       0.098360       0.328481        10.1007      0.0088214 
    -0.0132000        52.6628       0.249730        52.6628         0.2595 
        0.2702       0.098360        24.9730        24.9730       0.249730 
       75.8635        76.2470         2.2814       414.9525       0.348100 
      0.371550         9.8280         0.0000         0.0080        17.4170 
        5.8480         0.0360         0.0000         1.6720         3.2133 
      0.368980         2.1133         0.1962       -53.0833         0.9436 
        0.0000         0.0733
       4619.00 
       10.0000       0.115320       0.330075        10.0940      0.0172320 
    -0.0140000        53.6720       0.239650        53.6720         0.2570 
        0.2710       0.115320        23.9650        23.9650       0.239650 
       76.9190        76.5740         2.3908       388.3021       0.354970 
      0.397000        11.2390         0.0000         0.2920        15.5550 
        6.8990         0.2150         0.0170         1.2790         3.1450 
      0.392344         2.1000         0.2820       -52.2500         0.9299 
        0.0000         0.1313
       4619.50 
       10.0000       0.132290       0.330719        10.1062      0.0183842 
    -0.0180000        55.7523       0.223780        55.7523         0.2560 
        0.2732       0.132290        22.3780        22.3780       0.223780 
       77.2930        77.0200         2.4045       348.7623       0.356070 
      0.392628        10.8770         0.5180         1.8340        13.6470 
        7.0470         0.8070         0.0790         0.7980         3.3548 
      0.394305         2.0843         0.3938       -49.8338         0.9288 
        0.0000         0.1142
       4620.00 
       10.0000       0.136075       0.330719        10.1220      0.0297967 
    -0.0180000        55.8040       0.217175        55.8040         0.2560 
        0.2740       0.136075        21.7175        21.7175       0.217175 
       77.1260      -999.2500         2.4912       325.9401       0.353250 
      0.412570         9.8090         1.2535         2.5450        12.9730 
        7.0325         1.0155         0.1095         0.5870         3.3540 
      0.396654         2.0810         0.4030       -49.9380         0.9362 
        0.0000         0.1854
       4620.50 
       10.0000       0.139860       0.329307        10.1137      0.0262996 
    -0.0197000        55.2585       0.210570        55.2585         0.2582 
        0.2753       0.139860        21.0570        21.0570       0.210570 
       76.5110        77.1610         2.4495       314.9659       0.350430 
      0.403080         8.7410         1.9890         3.2560        12.2990 
        7.0180         1.2240         0.1400         0.3760         3.3688 
      0.393545         2.0882         0.3260       -48.6563         0.9397 
        0.0000         0.1645
       4621.00 
       10.0000       0.126280       0.328798        10.1170      0.0307448 
    -0.0180000        55.5610       0.219160        55.5610         0.2590 
        0.2770       0.126280        21.9160        21.9160       0.219160 
       76.6640        76.9080         2.4611       326.5496       0.345430 
      0.410280         7.3250         2.2000         3.1030        15.3940 
        4.5890         0.7840         0.1120         1.0360         3.2080 
      0.392719         2.0990         0.3060       -46.3130         0.9519 
        0.0000         0.2027
       4621.50 
       10.0000       0.099060       0.327536        10.2058      0.0344363 
    -0.0177000        56.3805       0.243320        56.3805         0.2610 
        0.2782       0.099060        24.3320        24.3320       0.243320 
       77.0450        76.7370         2.4829       378.4095       0.342370 
      0.418917         7.1800         0.8710         1.8540        20.5610 
        1.3970         0.1760         0.0500         2.1480         3.6020 
      0.389136         2.1095         0.3392       -45.6358         0.9567 
        0.0000         0.2392
       4622.00 
       10.0000       0.080380       0.327536        10.2350      0.0213519 
    -0.0160000        54.9130       0.262280        54.9130         0.2610 
        0.2790       0.080380        26.2280        26.2280       0.262280 
       77.2510        76.5380         2.3662       430.9962       0.342670 
      0.398750         7.3780         0.0000         0.6600        22.2250 
        1.5180         0.0000         0.0000         2.4850         3.9720 
      0.383880         2.1270         0.4050       -45.3750         0.9558 
        0.0000         0.1753
       4622.50 
       10.0000       0.080290       0.327724        10.4445      0.0074111 
    -0.0183000        53.7075       0.270180        53.7075         0.2607 
        0.2787       0.080290        27.0180        27.0180       0.270180 
       76.9225        75.7860         2.2881       530.6556       0.350470 
      0.377277         7.9020         0.0000         0.1270        20.3480 
        4.3630         0.0000         0.0000         2.3080         4.4708 
      0.380961         2.1210         0.4605       -46.7083         0.9351 
        0.0000         0.0838
