~Version Information Block
VERS .                  2.0:  CWLS LOG ASCII STANDARD - VERSION 2.0
WRAP .                  YES:  Multiple lines per depth step
~Well Information Block
#MNEM.UNIT        Data Type   Information
#---------- ----------------  -----------
STRT .FT            4000.00:  START DEPTH
STOP .FT            5000.00:  STOP DEPTH
STEP .FT               0.50:  STEP
NULL .              -999.25:  NULL VALUE
COMP .     PENNZOIL EXPLORATION & PRODUCTION COMPANY:  COMPANY
WELL .              EXAMPLE:  WELL
FLD  .     EUGENE ISLAND BLOCK 330:  FIELD
LOC  .     5150 FSL & 8006 FEL:  LOCATION
CTRY .                  USA:  COUNTRY
STAT .            LOUISIANA:  STATE
CNTY .             OFFSHORE:  COUNTY
SRVC .         PetCom, Inc.:  SERVICE COMPANY
DATE .     14-MAR-96 @ 10:58:58:  DATE
API  .                     :  API NUMBER
UWI  .                     :  UNIQUE WELL ID
~Curve Information Block
#MNEM.UNIT         API CODE   Curve Description
#---------- ----------------  -----------------
DEPTH.FT                   :  
BS   .IN                   :  10
BVI  .V/V                  :  MBVI/100
BVW  .V/V                  :  SW*MPHI/100
CALI .IN                   :  
CBW  .V/V                  :  Clay-Bound Water
DRHO .G/C3                 :  
DT   .USEC/F                 :  
FFI  .V/V                  :  MFFI/100
GR   .GAPI                 :  
ILD  .OHMM                 :  
ILM  .OHMM                 :  
MBVI .V/V                  :  MBVI/100
MFFI .%                  PU:  
MFFI .%                    :  MFFI/100
MFFI .V/V                  :  MFFI/100
MGR  .GAPI              CPS:  
MGR  .                     :  
MNA  .                     :  m* apparent,  valid in wet intervals for m* trend
MPERM.MD                 MD:  
MPHI .V/V                  :  MPHI/100
NPHI .V/V                  :  
P1   .%                  PU:  
P2   .%                  PU:  
P3   .%                  PU:  
P4   .%                  PU:  
P5   .%                  PU:  
P6   .%                  PU:  
P7   .%                  PU:  
P8   .%                  PU:  
PEF  .B/E                  :  
PHIX .V/V                  :  
RHOB .G/C3                 :  
RMLL .OHMM                 :  
SP   .MV                   :  
SW   .V/V                  :  
T2_DIST.MSEC                 :  NMR T2 DISTRIBUTION
VSH  .V/V                  :  Volume of Shale used in Analysis
~Other Information Block
~Ascii Log Data
# ...
       4462.00 
     -999.2500       0.000000    -999.250000         9.9260   -999.2500000 
     0.0050000       126.4180    -999.250000       126.4180         0.4490 
        0.4500       0.000000         0.0000         0.0000    -999.250000 
      155.3420      -999.2500      -999.2500         0.0000       0.000000 
      0.457840         0.0000         0.0000         0.0000         0.0000 
        0.0000         0.0000         0.0000         0.0000         3.7070 
      0.380816         2.1550         0.4740       -24.6880      -999.2500 
     -999.2500      -999.2500
       4462.50 
     -999.2500       0.000000    -999.250000         9.8840   -999.2500000 
     0.0037000       126.7428    -999.250000       126.7428         0.4500 
        0.4522       0.000000         0.0000         0.0000    -999.250000 
      156.9300       157.5140      -999.2500         0.0000       0.000000 
      0.474513         0.0000         0.0000         0.0000         0.0000 
        0.0000         0.0000         0.0000         0.0000         3.7812 
      0.380914         2.1507         0.4690       -25.5213      -999.2500 
     -999.2500      -999.2500
       4463.00 
     -999.2500       0.000000    -999.250000         9.9790   -999.2500000 
     0.0020000       128.7570    -999.250000       128.7570         0.4500 
        0.4530       0.000000         0.0000         0.0000    -999.250000 
      157.2820       157.9660      -999.2500         0.0000       0.000000 
      0.512230         0.0000         0.0000         0.0000         0.0000 
        0.0000         0.0000         0.0000         0.0000         3.7570 
      0.380901         2.1490         0.4690       -24.6880      -999.2500 
     -999.2500      -999.2500
       4463.50 
     -999.2500       0.000000    -999.250000        10.1060   -999.2500000 
     0.0038000       130.0393    -999.250000       130.0393         0.4497 
        0.4550       0.000000         0.0000         0.0000    -999.250000 
      157.1025       158.9560      -999.2500         0.0000       0.000000 
      0.505347         0.0000         0.0000         0.0000         0.0000 
        0.0000         0.0000         0.0000         0.0000         3.7633 
      0.380939         2.1482         0.4632       -24.7083      -999.2500 
     -999.2500      -999.2500
       4464.00 
     -999.2500       0.000000    -999.250000        10.1310   -999.2500000 
     0.0030000       135.2410    -999.250000       135.2410         0.4480 
        0.4550       0.000000         0.0000         0.0000    -999.250000 
      157.4080       159.0140      -999.2500         0.0000       0.000000 
      0.519580         0.0000         0.0000         0.0000         0.0000 
        0.0000         0.0000         0.0000         0.0000         3.7050 
      0.380891         2.1490         0.4640       -23.8750      -999.2500 
     -999.2500      -999.2500
       4464.50 
     -999.2500       0.000000    -999.250000         9.9928   -999.2500000 
     0.0052000       130.3057    -999.250000       130.3057         0.4468 
        0.4525       0.000000         0.0000         0.0000    -999.250000 
      158.0240       158.2770      -999.2500         0.0000       0.000000 
      0.518752         0.0000         0.0000         0.0000         0.0000 
        0.0000         0.0000         0.0000         0.0000         3.6527 
      0.380779         2.1538         0.4330       -23.6672      -999.2500 
     -999.2500      -999.2500
       4465.00 
     -999.2500       0.000000    -999.250000         9.9370   -999.2500000 
     0.0060000       132.8240    -999.250000       132.8240         0.4460 
        0.4500       0.000000         0.0000         0.0000    -999.250000 
      158.8390      -999.2500      -999.2500         0.0000       0.000000 
      0.544260         0.0000         0.0000         0.0000         0.0000 
        0.0000         0.0000         0.0000         0.0000         3.7160 
      0.380749         2.1580         0.4130       -24.8130      -999.2500 
     -999.2500      -999.2500
       4465.50 
     -999.2500       0.000000    -999.250000        10.0630   -999.2500000 
     0.0062000       129.6135    -999.250000       129.6135         0.4448 
        0.4467       0.000000         0.0000         0.0000    -999.250000 
      160.5375       157.4250      -999.2500         0.0000       0.000000 
      0.504028         0.0000         0.0000         0.0000         0.0000 
        0.0000         0.0000         0.0000         0.0000         3.8185 
      0.380751         2.1538         0.4100       -23.2088      -999.2500 
     -999.2500      -999.2500
       4466.00 
     -999.2500       0.000000    -999.250000        10.1380   -999.2500000 
     0.0020000       131.0860    -999.250000       131.0860         0.4440 
        0.4450       0.000000         0.0000         0.0000    -999.250000 
      160.2360       156.3900      -999.2500         0.0000       0.000000 
      0.492220         0.0000         0.0000         0.0000         0.0000 
        0.0000         0.0000         0.0000         0.0000         3.7860 
      0.380994         2.1480         0.4100       -23.9380      -999.2500 
     -999.2500      -999.2500
       4466.50 
     -999.2500       0.000000    -999.250000        10.1320   -999.2500000 
     0.0040000       131.5015    -999.250000       131.5015         0.4430 
        0.4432       0.000000         0.0000         0.0000    -999.250000 
      156.9305       156.2370      -999.2500         0.0000       0.000000 
      0.489795         0.0000         0.0000         0.0000         0.0000 
        0.0000         0.0000         0.0000         0.0000         3.7815 
      0.380869         2.1507         0.4325       -23.3338      -999.2500 
     -999.2500      -999.2500
       4467.00 
     -999.2500       0.000000    -999.250000        10.1470   -999.2500000 
     0.0040000       127.5390    -999.250000       127.5390         0.4430 
        0.4440       0.000000         0.0000         0.0000    -999.250000 
      154.7380       157.4990      -999.2500         0.0000       0.000000 
      0.531970         0.0000         0.0000         0.0000         0.0000 
        0.0000         0.0000         0.0000         0.0000         3.8140 
      0.380880         2.1490         0.4400       -23.4380      -999.2500 
     -999.2500      -999.2500
       4467.50 
     -999.2500       0.000000    -999.250000        10.1607   -999.2500000 
     0.0035000       121.0522    -999.250000       121.0522         0.4428 
        0.4463       0.000000         0.0000         0.0000    -999.250000 
      155.4270       158.6600      -999.2500         0.0000       0.000000 
      0.514733         0.0000         0.0000         0.0000         0.0000 
        0.0000         0.0000         0.0000         0.0000         3.9020 
      0.380949         2.1470         0.4745       -24.1672      -999.2500 
     -999.2500      -999.2500
       4468.00 
     -999.2500       0.000000    -999.250000        10.1840   -999.2500000 
     0.0060000       120.4180    -999.250000       120.4180         0.4420 
        0.4480       0.000000         0.0000         0.0000    -999.250000 
      156.5750      -999.2500      -999.2500         0.0000       0.000000 
      0.504800         0.0000         0.0000         0.0000         0.0000 
        0.0000         0.0000         0.0000         0.0000         3.9920 
      0.380980         2.1470         0.4670       -23.4380      -999.2500 
     -999.2500      -999.2500
       4468.50 
     -999.2500       0.000000    -999.250000        10.1317   -999.2500000 
     0.0108000       120.9852    -999.250000       120.9852         0.4420 
        0.4490       0.000000         0.0000         0.0000    -999.250000 
      157.6920       158.7770      -999.2500         0.0000       0.000000 
      0.478277         0.0000         0.0000         0.0000         0.0000 
        0.0000         0.0000         0.0000         0.0000         3.9377 
      0.380245         2.1598         0.4225       -24.4275      -999.2500 
     -999.2500      -999.2500
