~Version Information Block
VERS .                  2.0:  CWLS LOG ASCII STANDARD - VERSION 2.0
WRAP .                  YES:  Multiple lines per depth step
~Well Information Block
#MNEM.UNIT        Data Type   Information
#---------- ----------------  -----------
STRT .FT            4000.00:  START DEPTH
STOP .FT            5000.00:  STOP DEPTH
STEP .FT               0.50:  STEP
NULL .              -999.25:  NULL VALUE
COMP .     PENNZOIL EXPLORATION & PRODUCTION COMPANY:  COMPANY
WELL .              EXAMPLE:  WELL
FLD  .     EUGENE ISLAND BLOCK 330:  FIELD
LOC  .     5150 FSL & 8006 FEL:  LOCATION
CTRY .                  USA:  COUNTRY
STAT .            LOUISIANA:  STATE
CNTY .             OFFSHORE:  COUNTY
SRVC .         PetCom, Inc.:  SERVICE COMPANY
DATE .     14-MAR-96 @ 10:58:58:  DATE
API  .                     :  API NUMBER
UWI  .                     :  UNIQUE WELL ID
~Curve Information Block
#MNEM.UNIT         API CODE   Curve Description
#---------- ----------------  -----------------
DEPTH.FT                   :  
BS   .IN                   :  10
BVI  .V/V                  :  MBVI/100
BVW  .V/V                  :  SW*MPHI/100
CALI .IN                   :  
CBW  .V/V                  :  Clay-Bound Water
DRHO .G/C3                 :  
DT   .USEC/F                 :  
FFI  .V/V                  :  MFFI/100
GR   .GAPI                 :  
ILD  .OHMM                 :  
ILM  .OHMM                 :  
MBVI .V/V                  :  MBVI/100
MFFI .%                  PU:  
MFFI .%                    :  MFFI/100
MFFI .V/V                  :  MFFI/100
MGR  .GAPI              CPS:  
MGR  .                     :  
MNA  .                     :  m* apparent,  valid in wet intervals for m* trend
MPERM.MD                 MD:  
MPHI .V/V                  :  MPHI/100
NPHI .V/V                  :  
P1   .%                  PU:  
P2   .%                  PU:  
P3   .%                  PU:  
P4   .%                  PU:  
P5   .%                  PU:  
P6   .%                  PU:  
P7   .%                  PU:  
P8   .%                  PU:  
PEF  .B/E                  :  
PHIX .V/V                  :  
RHOB .G/C3                 :  
RMLL .OHMM                 :  
SP   .MV                   :  
SW   .V/V                  :  
T2_DIST.MSEC                 :  NMR T2 DISTRIBUTION
VSH  .V/V                  :  Volume of Shale used in Analysis
~Other Information Block
~Ascii Log Data
# ...
       4637.00 
       10.0000       0.155120       0.333997        10.2790      0.0292250 
    -0.0170000        46.5070       0.193870        46.5070         0.2510 
        0.2510       0.155120        19.3870        19.3870       0.193870 
       69.8140        73.4860         2.4396       421.0315       0.348990 
      0.394690         5.5670         9.7600         0.1840         2.2050 
       14.8260         2.3490         0.0070         0.0000         2.8780 
      0.404416         2.0670         0.3220       -47.0630         0.9570 
        0.0000         0.1428
       4637.50 
       10.0000       0.174280       0.322509        10.3607      0.0271799 
    -0.0150000        49.9202       0.167680        49.9202         0.2692 
        0.2688       0.174280        16.7680        16.7680       0.167680 
       74.1395        75.8990         2.4469       266.6947       0.341960 
      0.387805         6.6950         8.9140         1.8180         3.8960 
        9.9380         2.6060         0.3280         0.0000         2.7438 
      0.391300         2.0863         0.3685       -45.7922         0.9431 
        0.0000         0.1433
       4638.00 
       10.0000       0.185265       0.316228        10.5140      0.0221579 
    -0.0100000        52.8160       0.155445        52.8160         0.2800 
        0.2830       0.185265        15.5445        15.5445       0.155445 
       76.3630      -999.2500         2.4320       185.6779       0.340710 
      0.386230         7.9980         7.6790         2.8490         4.6380 
        7.8105         2.5040         0.5325         0.0600         2.8930 
      0.384141         2.1080         0.3560       -42.5630         0.9281 
        0.0000         0.1423
       4638.50 
       10.0000       0.196250       0.306272        10.7370      0.0178992 
    -0.0082000        58.7488       0.143210        58.7488         0.2985 
        0.3050       0.196250        14.3210        14.3210       0.143210 
       79.0495        77.6210         2.4473       100.5783       0.339460 
      0.384985         9.3010         6.4440         3.8800         5.3800 
        5.6830         2.4020         0.7370         0.1200         3.2403 
      0.377963         2.1275         0.3617       -38.4583         0.9022 
        0.0000         0.1423
       4639.00 
       10.0000       0.215110       0.297670        10.9970      0.0179142 
    -0.0040000        61.0130       0.128660        61.0130         0.3160 
        0.3200       0.215110        12.8660        12.8660       0.128660 
       77.7360        78.2800         2.5318        72.1050       0.343770 
      0.399860        12.2940         4.2590         4.9570         6.6640 
        3.3530         1.2970         0.6520         0.9010         3.4620 
      0.381962         2.1400         0.3900       -38.2500         0.8659 
        0.0000         0.1753
       4639.50 
       10.0000       0.233950       0.288976        11.0285      0.0096347 
    -0.0050000        59.1668       0.119470        59.1668         0.3353 
        0.3410       0.233950        11.9470        11.9470       0.119470 
       78.2550        78.0520         2.5766        54.7340       0.353420 
      0.400537        15.2910         2.2150         5.8890         6.8120 
        2.7560         0.3340         0.4320         1.6130         3.5822 
      0.381680         2.1437         0.4785       -33.9688         0.8177 
        0.0000         0.1472
       4640.00 
       10.0000       0.251610       0.284063        10.8910      0.0017820 
     0.0000000        57.6210       0.112290        57.6210         0.3470 
        0.3560       0.251610        11.2290        11.2290       0.112290 
       78.7300        77.9080         2.6066        46.9444       0.363900 
      0.403470        17.7840         0.5000         6.8770         5.6570 
        3.3740         0.0000         0.9520         1.2450         3.7580 
      0.381518         2.1470         0.5310       -33.1880         0.7806 
        0.0000         0.1237
       4640.50 
       10.0000       0.255460       0.276327        10.7228      0.0001000 
    -0.0010000        58.0415       0.112200        58.0415         0.3667 
        0.3768       0.255460        11.2200        11.2200       0.112200 
       78.0715        77.6010         2.6498        43.8357       0.367660 
      0.400107        18.3470         0.2070         6.9920         4.7190 
        4.3970         0.1700         1.3970         0.5360         4.7673 
      0.381606         2.1453         0.5385       -32.0005         0.7516 
        0.0000         0.1014
       4641.00 
       10.0000       0.249975       0.271448        10.9970      0.0075214 
    -0.0010000        61.6390       0.116845        61.6390         0.3800 
        0.3910       0.249975        11.6845        11.6845       0.116845 
       77.2250      -999.2500         2.7776        44.4612       0.366825 
      0.419140        17.8330         0.5185         6.6460         4.4620 
        5.1235         0.5920         1.1090         0.3975         5.8090 
      0.384541         2.1420         0.5310       -31.0630         0.7400 
        0.0000         0.1635
       4641.50 
       10.0000       0.244490       0.267329        11.0577      0.0099750 
    -0.0052000        60.5875       0.121490        60.5875         0.3918 
        0.4080       0.244490        12.1490        12.1490       0.121490 
       77.5730        76.5990         2.8280        51.4167       0.365990 
      0.421027        17.3190         0.8300         6.3000         4.2050 
        5.8500         1.0140         0.8210         0.2590         6.1798 
      0.384701         2.1378         0.4900       -31.8333         0.7304 
        0.0000         0.1720
       4642.00 
       10.0000       0.217750       0.265908        10.5860      0.0182288 
    -0.0060000        58.7750       0.143870        58.7750         0.3960 
        0.4180       0.217750        14.3870        14.3870       0.143870 
       77.3880        74.4910         2.8917        68.3648       0.361610 
      0.428760        15.2210         1.8610         4.6920         5.0240 
        6.9300         1.9830         0.2930         0.1560         5.0240 
      0.384980         2.1320         0.4700       -33.5000         0.7353 
        0.0000         0.2098
       4642.50 
       10.0000       0.184970       0.267159        10.1290      0.0293585 
    -0.0160000        55.8995       0.168380        55.8995         0.3923 
        0.4240       0.184970        16.8380        16.8380       0.168380 
       74.3495        72.1670         2.9346       103.4695       0.353350 
      0.423413        12.0730         3.7650         2.6590         6.4650 
        7.4570         2.4330         0.3680         0.1140         3.7470 
      0.389469         2.1020         0.5075       -35.7297         0.7561 
        0.0000         0.2189
       4643.00 
       10.0000       0.164390       0.270031        10.2790      0.0394215 
    -0.0210000        55.0920       0.178730        55.0920         0.3840 
        0.4240       0.164390        17.8730        17.8730       0.178730 
       72.3910        70.1690         2.9377       124.1810       0.343120 
      0.416730         7.6490         7.7860         1.0040         4.6630 
       10.8070         2.0680         0.2680         0.0670         3.3070 
      0.396489         2.0820         0.5400       -38.4380         0.7870 
        0.0000         0.2300
       4643.50 
       10.0000       0.155880       0.277350        10.3405      0.0367587 
    -0.0200000        55.7260       0.181660        55.7260         0.3640 
        0.4105       0.155880        18.1660        18.1660       0.181660 
       68.7735        68.3120         2.8135       147.6618       0.337540 
      0.389900         3.1530        12.3260         0.1090         1.4430 
       15.1530         1.5450         0.0250         0.0000         3.0552 
      0.404778         2.0657         0.6558       -40.1567         0.8217 
        0.0000         0.1636
