~Version Information Block
VERS .                  2.0:  CWLS LOG ASCII STANDARD - VERSION 2.0
WRAP .                  YES:  Multiple lines per depth step
~Well Information Block
#MNEM.UNIT        Data Type   Information
#---------- ----------------  -----------
STRT .FT            4000.00:  START DEPTH
STOP .FT            5000.00:  STOP DEPTH
STEP .FT               0.50:  STEP
NULL .              -999.25:  NULL VALUE
COMP .     PENNZOIL EXPLORATION & PRODUCTION COMPANY:  COMPANY
WELL .              EXAMPLE:  WELL
FLD  .     EUGENE ISLAND BLOCK 330:  FIELD
LOC  .     5150 FSL & 8006 FEL:  LOCATION
CTRY .                  USA:  COUNTRY
STAT .            LOUISIANA:  STATE
CNTY .             OFFSHORE:  COUNTY
SRVC .         PetCom, Inc.:  SERVICE COMPANY
DATE .     14-MAR-96 @ 10:58:58:  DATE
API  .                     :  API NUMBER
UWI  .                     :  UNIQUE WELL ID
~Curve Information Block
#MNEM.UNIT         API CODE   Curve Description
#---------- ----------------  -----------------
DEPTH.FT                   :  
BS   .IN                   :  10
BVI  .V/V                  :  MBVI/100
BVW  .V/V                  :  SW*MPHI/100
CALI .IN                   :  
CBW  .V/V                  :  Clay-Bound Water
DRHO .G/C3                 :  
DT   .USEC/F                 :  
FFI  .V/V                  :  MFFI/100
GR   .GAPI                 :  
ILD  .OHMM                 :  
ILM  .OHMM                 :  
MBVI .V/V                  :  MBVI/100
MFFI .%                  PU:  
MFFI .%                    :  MFFI/100
MFFI .V/V                  :  MFFI/100
MGR  .GAPI              CPS:  
MGR  .                     :  
MNA  .                     :  m* apparent,  valid in wet intervals for m* trend
MPERM.MD                 MD:  
MPHI .V/V                  :  MPHI/100
NPHI .V/V                  :  
P1   .%                  PU:  
P2   .%                  PU:  
P3   .%                  PU:  
P4   .%                  PU:  
P5   .%                  PU:  
P6   .%                  PU:  
P7   .%                  PU:  
P8   .%                  PU:  
PEF  .B/E                  :  
PHIX .V/V                  :  
RHOB .G/C3                 :  
RMLL .OHMM                 :  
SP   .MV                   :  
SW   .V/V                  :  
T2_DIST.MSEC                 :  NMR T2 DISTRIBUTION
VSH  .V/V                  :  Volume of Shale used in Analysis
~Other Information Block
~Ascii Log Data
# ...
       4490.00 
     -999.2500       0.160000    -999.250000        10.7090   -999.2500000 
     0.0070000        81.4210    -999.250000        81.4210         0.6270 
        0.6340       0.160000         1.2390         1.2390    -999.250000 
      104.7340       104.5860      -999.2500         0.0703       0.172390 
      0.356200        16.0000         0.0000         0.0000         0.0000 
        0.0890         0.2050         0.6270         0.3190         3.6600 
      0.321237         2.2580         0.6060       -17.1880      -999.2500 
     -999.2500      -999.2500
       4490.50 
     -999.2500       0.154580    -999.250000        10.6512   -999.2500000 
     0.0035000        76.3912    -999.250000        76.3912         0.6247 
        0.6305       0.154580         1.1940         1.1940    -999.250000 
      103.2030       103.8750      -999.2500         0.0740       0.166520 
      0.361617        15.4580         0.0000         0.0000         0.0000 
        0.0000         0.1220         0.7260         0.3460         3.6063 
      0.321922         2.2500         0.6577       -17.6980      -999.2500 
     -999.2500      -999.2500
       4491.00 
     -999.2500       0.151030    -999.250000        10.6470   -999.2500000 
     0.0010000        76.0670    -999.250000        76.0670         0.6230 
        0.6280       0.151030         1.0810         1.0810    -999.250000 
      102.8660       103.6400      -999.2500         0.0666       0.161840 
      0.377200        15.1030         0.0000         0.0000         0.0000 
        0.0000         0.0210         0.4040         0.6570         3.5680 
      0.346792         2.2500         0.6760       -16.8130      -999.2500 
     -999.2500      -999.2500
       4491.50 
     -999.2500       0.150895    -999.250000        10.7008   -999.2500000 
     0.0018000        80.4618    -999.250000        80.4618         0.6220 
        0.6247       0.150895         1.0335         1.0335    -999.250000 
      103.4615      -999.2500      -999.2500         0.0414       0.161230 
      0.413553        15.0895         0.0000         0.0000         0.0000 
        0.0000         0.0155         0.2680         0.7505         3.3863 
      0.349655         2.2598         0.6107       -18.2500      -999.2500 
     -999.2500      -999.2500
       4492.00 
     -999.2500       0.150760    -999.250000        10.6450   -999.2500000 
     0.0010000        81.5310    -999.250000        81.5310         0.6220 
        0.6230       0.150760         0.9860         0.9860    -999.250000 
      103.9790       104.2300      -999.2500         0.0309       0.160620 
      0.421870        15.0760         0.0000         0.0000         0.0000 
        0.0000         0.0100         0.1320         0.8440         3.3330 
      0.349324         2.2640         0.5490       -18.2500      -999.2500 
     -999.2500      -999.2500
       4492.50 
     -999.2500       0.149450    -999.250000        10.4973   -999.2500000 
    -0.0023000        79.9762    -999.250000        79.9762         0.6207 
        0.6245       0.149450         0.9770         0.9770    -999.250000 
      106.1175       105.6250      -999.2500         0.0291       0.159220 
      0.407825        14.9450         0.0000         0.0000         0.0000 
        0.0000         0.0000         0.0000         0.9770         3.2610 
      0.351811         2.2653         0.5762       -17.8547      -999.2500 
     -999.2500      -999.2500
       4493.00 
     -999.2500       0.147340    -999.250000        10.5090   -999.2500000 
    -0.0040000        77.0370    -999.250000        77.0370         0.6190 
        0.6270       0.147340         1.0050         1.0050    -999.250000 
      107.3270       106.5315      -999.2500         0.0311       0.157385 
      0.401750        14.7340         0.0000         0.0000         0.0000 
        0.0015         0.0000         0.0000         1.0035         3.3760 
      0.352614         2.2620         0.6070       -18.0630      -999.2500 
     -999.2500      -999.2500
       4493.50 
     -999.2500       0.145230    -999.250000        10.4992   -999.2500000 
    -0.0060000        77.5075    -999.250000        77.5075         0.6168 
        0.6290       0.145230         1.0330         1.0330    -999.250000 
      109.5580       107.4380      -999.2500         0.0383       0.155550 
      0.399743        14.5230         0.0000         0.0000         0.0000 
        0.0030         0.0000         0.0000         1.0300         3.6213 
      0.354051         2.2492         0.6622       -14.7292      -999.2500 
     -999.2500      -999.2500
       4494.00 
     -999.2500       0.141760    -999.250000        10.5100   -999.2500000 
    -0.0060000        78.5150    -999.250000        78.5150         0.6160 
        0.6290       0.141760         1.1450         1.1450    -999.250000 
      110.5570       109.2480      -999.2500         0.0472       0.153210 
      0.414160        14.1760         0.0000         0.0000         0.0000 
        0.0220         0.0960         0.1840         0.8440         3.8830 
      0.358207         2.2400         0.6230       -13.3750      -999.2500 
     -999.2500      -999.2500
       4494.50 
     -999.2500       0.137290    -999.250000        10.4937   -999.2500000 
    -0.0077000        79.6685    -999.250000        79.6685         0.6178 
        0.6278       0.137290         1.3190         1.3190    -999.250000 
      111.3935       110.5080      -999.2500         0.0540       0.150480 
      0.414258        13.7290         0.0000         0.0000         0.0000 
        0.0450         0.2550         0.5260         0.4930         4.0270 
      0.359531         2.2278         0.5430       -12.3963      -999.2500 
     -999.2500      -999.2500
       4495.00 
     -999.2500       0.137380    -999.250000        10.4870   -999.2500000 
    -0.0110000        79.3860    -999.250000        79.3860         0.6170 
        0.6270       0.137380         1.3520         1.3520    -999.250000 
      111.7750      -999.2500      -999.2500         0.0540       0.150900 
      0.419050        13.7380         0.0000         0.0000         0.0000 
        0.0570         0.2745         0.4965         0.5240         3.9820 
      0.364048         2.2170         0.5530       -12.8130      -999.2500 
     -999.2500      -999.2500
       4495.50 
     -999.2500       0.137470    -999.250000        10.4325   -999.2500000 
    -0.0095000        77.9550    -999.250000        77.9550         0.6130 
        0.6267       0.137470         1.3850         1.3850    -999.250000 
      109.6745       110.5290      -999.2500         0.0471       0.151320 
      0.388747        13.7470         0.0000         0.0000         0.0000 
        0.0690         0.2940         0.4670         0.5550         3.8732 
      0.366966         2.2123         0.6955       -13.6567      -999.2500 
     -999.2500      -999.2500
       4496.00 
     -999.2500       0.145340    -999.250000        10.4450   -999.2500000 
    -0.0070000        76.8450    -999.250000        76.8450         0.6080 
        0.6250       0.145340         1.2800         1.2800    -999.250000 
      108.0770       109.4580      -999.2500         0.0442       0.158140 
      0.403980        14.4140         0.0000         0.1200         0.0000 
        0.0860         0.1330         0.1260         0.9360         3.7940 
      0.365870         2.2190         0.7780       -13.5000      -999.2500 
     -999.2500      -999.2500
       4496.50 
     -999.2500       0.149030    -999.250000        10.4772   -999.2500000 
    -0.0040000        82.2027    -999.250000        82.2027         0.5990 
        0.6170       0.149030         1.1850         1.1850    -999.250000 
      106.3950       108.6250      -999.2500         0.0422       0.160880 
      0.426157        14.3210         0.3620         0.2190         0.0000 
        0.0630         0.0090         0.0000         1.1130         3.9612 
      0.363949         2.2225         0.6930       -14.2813      -999.2500 
     -999.2500      -999.2500
