~Version Information Block
VERS .                  2.0:  CWLS LOG ASCII STANDARD - VERSION 2.0
WRAP .                  YES:  Multiple lines per depth step
~Well Information Block
#MNEM.UNIT        Data Type   Information
#---------- ----------------  -----------
STRT .FT            4000.00:  START DEPTH
STOP .FT            5000.00:  STOP DEPTH
STEP .FT               0.50:  STEP
NULL .              -999.25:  NULL VALUE
COMP .     PENNZOIL EXPLORATION & PRODUCTION COMPANY:  COMPANY
WELL .              EXAMPLE:  WELL
FLD  .     EUGENE ISLAND BLOCK 330:  FIELD
LOC  .     5150 FSL & 8006 FEL:  LOCATION
CTRY .                  USA:  COUNTRY
STAT .            LOUISIANA:  STATE
CNTY .             OFFSHORE:  COUNTY
SRVC .         PetCom, Inc.:  SERVICE COMPANY
DATE .     14-MAR-96 @ 10:58:58:  DATE
API  .                     :  API NUMBER
UWI  .                     :  UNIQUE WELL ID
~Curve Information Block
#MNEM.UNIT         API CODE   Curve Description
#---------- ----------------  -----------------
DEPTH.FT                   :  
BS   .IN                   :  10
BVI  .V/V                  :  MBVI/100
BVW  .V/V                  :  SW*MPHI/100
CALI .IN                   :  
CBW  .V/V                  :  Clay-Bound Water
DRHO .G/C3                 :  
DT   .USEC/F                 :  
FFI  .V/V                  :  MFFI/100
GR   .GAPI                 :  
ILD  .OHMM                 :  
ILM  .OHMM                 :  
MBVI .V/V                  :  MBVI/100
MFFI .%                  PU:  
MFFI .%                    :  MFFI/100
MFFI .V/V                  :  MFFI/100
MGR  .GAPI              CPS:  
MGR  .                     :  
MNA  .                     :  m* apparent,  valid in wet intervals for m* trend
MPERM.MD                 MD:  
MPHI .V/V                  :  MPHI/100
NPHI .V/V                  :  
P1   .%                  PU:  
P2   .%                  PU:  
P3   .%                  PU:  
P4   .%                  PU:  
P5   .%                  PU:  
P6   .%                  PU:  
P7   .%                  PU:  
P8   .%                  PU:  
PEF  .B/E                  :  
PHIX .V/V                  :  
RHOB .G/C3                 :  
RMLL .OHMM                 :  
SP   .MV                   :  
SW   .V/V                  :  
T2_DIST.MSEC                 :  NMR T2 DISTRIBUTION
VSH  .V/V                  :  Volume of Shale used in Analysis
~Other Information Block
~Ascii Log Data
# ...
       4511.00 
       10.0000       0.184790       0.194920        10.1380      0.1423288 
     0.0090000        97.1810       0.010130        97.1810         0.4670 
        0.4720       0.184790         1.0130         1.0130       0.010130 
      128.1300       126.2410         3.0104         0.0380       0.194920 
      0.437990        18.4790         0.0000         0.0000         0.0000 
        0.0000         0.0000         0.0000         1.0130         3.3980 
      0.368893         2.1950         0.4560       -20.1880         1.0000 
        0.0000         0.7596
       4511.50 
       10.0000       0.186230       0.196390        10.1232      0.1533682 
     0.0093000        93.6787       0.010160        93.6787         0.4638 
        0.4675       0.186230         1.0160         1.0160       0.010160 
      130.0410       128.1370         3.1197         0.0429       0.196390 
      0.463882        18.6230         0.0000         0.0000         0.0000 
        0.0000         0.0000         0.0000         1.0160         3.5212 
      0.368843         2.1953         0.4363       -19.9792         1.0000 
        0.0000         0.8359
       4512.00 
       10.0000       0.188330       0.198220        10.1240      0.1523219 
     0.0060000        96.7570       0.009890        96.7570         0.4630 
        0.4650       0.188330         0.9890         0.9890       0.009890 
      130.5240       129.6560         3.1220         0.0489       0.198220 
      0.457090        18.8330         0.0000         0.0000         0.0000 
        0.0000         0.0000         0.0000         0.9890         3.5820 
      0.371527         2.1770         0.4330       -21.1250         1.0000 
        0.0000         0.8090
       4512.50 
       10.0000       0.188190       0.198150        10.1365      0.1670344 
     0.0022000       103.7603       0.009960       103.7603         0.4647 
        0.4643       0.188190         0.9960         0.9960       0.009960 
      131.6660       130.7590         3.2689         0.0637       0.198150 
      0.480180        18.8190         0.0000         0.0000         0.0000 
        0.0000         0.0000         0.0000         0.9960         3.7033 
      0.380375         2.1583         0.4260       -20.7813         1.0000 
        0.0000         0.8813
       4513.00 
       10.0000       0.187120       0.197325        10.1640      0.1690921 
    -0.0020000       106.6870       0.010200       106.6870         0.4680 
        0.4660       0.187120         1.0200         1.0200       0.010200 
      132.1070      -999.2500         3.2898         0.0682       0.197325 
      0.479580        18.7120         0.0000         0.0000         0.0000 
        0.0000         0.0000         0.0000         1.0200         3.6450 
      0.380940         2.1500         0.4160       -21.5630         1.0000 
        0.0000         0.8820
       4513.50 
       10.0000       0.186050       0.196500        10.1852      0.1822418 
    -0.0048000       104.4862       0.010440       104.4862         0.4737 
        0.4735       0.186050         1.0440         1.0440       0.010440 
      128.2210       130.6580         3.4288         0.0578       0.196500 
      0.511142        18.6050         0.0000         0.0000         0.0000 
        0.0000         0.0000         0.0000         1.0440         3.6328 
      0.380512         2.1628         0.4325       -20.7188         1.0000 
        0.0000         0.9833
       4514.00 
       10.0000       0.185240       0.195770        10.2160      0.1778155 
    -0.0040000       101.3570       0.010520       101.3570         0.4770 
        0.4810       0.185240         1.0520         1.0520       0.010520 
      123.5920       128.3250         3.3845         0.0511       0.195770 
      0.506350        18.5240         0.0000         0.0000         0.0000 
        0.0000         0.0000         0.0000         1.0520         3.5520 
      0.369028         2.1770         0.4500       -19.9380         1.0000 
        0.0000         0.9706
       4514.50 
       10.0000       0.187540       0.197280        10.2155      0.1547722 
    -0.0023000        95.7037       0.009740        95.7037         0.4830 
        0.4935       0.187540         0.9740         0.9740       0.009740 
      119.1955       124.6640         3.1791         0.0444       0.197280 
      0.467043        18.7540         0.0000         0.0000         0.0000 
        0.0000         0.0000         0.0000         0.9740         3.7010 
      0.369126         2.1922         0.5057       -19.4480         1.0000 
        0.0000         0.8430
       4515.00 
       10.0000       0.194580       0.203270        10.2830      0.1403786 
     0.0010000        94.9970       0.008690        94.9970         0.4880 
        0.5010       0.194580         0.8690         0.8690       0.008690 
      118.5550       121.2180         3.0956         0.0427       0.203270 
      0.451360        19.4580         0.0000         0.0000         0.0000 
        0.0000         0.0000         0.0000         0.8690         3.7260 
      0.368560         2.2030         0.5090       -18.5630         1.0000 
        0.0000         0.7753
       4515.50 
       10.0000       0.202150       0.210280        10.1255      0.1314726 
     0.0015000        94.2207       0.008140        94.2207         0.4975 
        0.5075       0.202150         0.8140         0.8140       0.008140 
      119.2895       119.3780         3.0810         0.0425       0.210280 
      0.444342        20.2150         0.0000         0.0000         0.0000 
        0.0000         0.0000         0.0000         0.8140         3.7320 
      0.368315         2.2028         0.4992       -19.1047         1.0000 
        0.0000         0.7314
       4516.00 
       10.0000       0.204690       0.212890        10.1080      0.1340426 
     0.0040000        94.8790       0.008205        94.8790         0.5050 
        0.5100       0.204690         0.8205         0.8205       0.008205 
      119.6700      -999.2500         3.1402         0.0445       0.212890 
      0.453800        20.4690         0.0000         0.0000         0.0000 
        0.0000         0.0000         0.0000         0.8205         3.5870 
      0.368479         2.2020         0.4750       -19.9380         1.0000 
        0.0000         0.7528
       4516.50 
       10.0000       0.207230       0.215500        10.0907      0.1396837 
     0.0022000        90.4185       0.008270        90.4185         0.5105 
        0.5122       0.207230         0.8270         0.8270       0.008270 
      118.8350       118.9610         3.2270         0.0480       0.215500 
      0.466908        20.7230         0.0000         0.0000         0.0000 
        0.0000         0.0000         0.0000         0.8270         3.4347 
      0.368887         2.1945         0.4838       -20.9588         1.0000 
        0.0000         0.7857
       4517.00 
       10.0000       0.205960       0.214800        10.0890      0.1499811 
     0.0030000        87.4910       0.008840        87.4910         0.5130 
        0.5130       0.205960         0.8840         0.8840       0.008840 
      118.1830       118.5030         3.3305         0.0488       0.214800 
      0.486150        20.5960         0.0000         0.0000         0.0000 
        0.0000         0.0000         0.0000         0.8840         3.5430 
      0.368746         2.1920         0.4930       -22.3130         1.0000 
        0.0000         0.8480
       4517.50 
       10.0000       0.198480       0.207650        10.1198      0.1525670 
     0.0047000        87.7195       0.009170        87.7195         0.5180 
        0.5155       0.198480         0.9170         0.9170       0.009170 
      117.0225       118.1300         3.3079         0.0462       0.207650 
      0.482602        19.8480         0.0000         0.0000         0.0000 
        0.0000         0.0000         0.0000         0.9170         3.6120 
      0.368261         2.1995         0.4972       -22.2297         1.0000 
        0.0000         0.8592
