~Version Information Block
VERS .                  2.0:  CWLS LOG ASCII STANDARD - VERSION 2.0
WRAP .                  YES:  Multiple lines per depth step
~Well Information Block
#MNEM.UNIT        Data Type   Information
#---------- ----------------  -----------
STRT .FT            4000.00:  START DEPTH
STOP .FT            5000.00:  STOP DEPTH
STEP .FT               0.50:  STEP
NULL .              -999.25:  NULL VALUE
COMP .     PENNZOIL EXPLORATION & PRODUCTION COMPANY:  COMPANY
WELL .              EXAMPLE:  WELL
FLD  .     EUGENE ISLAND BLOCK 330:  FIELD
LOC  .     5150 FSL & 8006 FEL:  LOCATION
CTRY .                  USA:  COUNTRY
STAT .            LOUISIANA:  STATE
CNTY .             OFFSHORE:  COUNTY
SRVC .         PetCom, Inc.:  SERVICE COMPANY
DATE .     14-MAR-96 @ 10:58:58:  DATE
API  .                     :  API NUMBER
UWI  .                     :  UNIQUE WELL ID
~Curve Information Block
#MNEM.UNIT         API CODE   Curve Description
#---------- ----------------  -----------------
DEPTH.FT                   :  
BS   .IN                   :  10
BVI  .V/V                  :  MBVI/100
BVW  .V/V                  :  SW*MPHI/100
CALI .IN                   :  
CBW  .V/V                  :  Clay-Bound Water
DRHO .G/C3                 :  
DT   .USEC/F                 :  
FFI  .V/V                  :  MFFI/100
GR   .GAPI                 :  
ILD  .OHMM                 :  
ILM  .OHMM                 :  
MBVI .V/V                  :  MBVI/100
MFFI .%                  PU:  
MFFI .%                    :  MFFI/100
MFFI .V/V                  :  MFFI/100
MGR  .GAPI              CPS:  
MGR  .                     :  
MNA  .                     :  m* apparent,  valid in wet intervals for m* trend
MPERM.MD                 MD:  
MPHI .V/V                  :  MPHI/100
NPHI .V/V                  :  
P1   .%                  PU:  
P2   .%                  PU:  
P3   .%                  PU:  
P4   .%                  PU:  
P5   .%                  PU:  
P6   .%                  PU:  
P7   .%                  PU:  
P8   .%                  PU:  
PEF  .B/E                  :  
PHIX .V/V                  :  
RHOB .G/C3                 :  
RMLL .OHMM                 :  
SP   .MV                   :  
SW   .V/V                  :  
T2_DIST.MSEC                 :  NMR T2 DISTRIBUTION
VSH  .V/V                  :  Volume of Shale used in Analysis
~Other Information Block
~Ascii Log Data
# ...
       4714.00 
       10.0000       0.080610       0.349410        10.4130      0.0153333 
    -0.0100000        50.1690       0.268810        50.1690         0.1870 
        0.1930       0.080610        26.8810        26.8810       0.268810 
       61.9150        64.9420         2.0325      1930.4430       0.349410 
      0.391160         8.0610         0.0000         0.0000         2.5560 
       24.1810         0.1440         0.0000         0.0000         2.9010 
      0.391098         2.1160         0.1590       -47.8750         1.0000 
        0.0000         0.1305
       4714.50 
       10.0000       0.074500       0.334210        10.4015      0.0274964 
    -0.0070000        52.3487       0.259710        52.3487         0.1907 
        0.1978       0.074500        25.9710        25.9710       0.259710 
       64.2185        66.6920         2.0687      1566.0900       0.334210 
      0.390027         7.4500         0.0000         0.0000         4.7570 
       20.9950         0.2040         0.0000         0.0160         3.1513 
      0.391348         2.1140         0.2085       -46.8125         1.0000 
        0.0000         0.1744
       4715.00 
       10.0000       0.070980       0.325060        10.2840      0.0368881 
    -0.0070000        51.6420       0.254080        51.6420         0.1940 
        0.2020       0.070980        25.4080        25.4080       0.254080 
       65.3820        69.3310         2.1118      1275.1840       0.325060 
      0.392060         7.0980         0.0000         0.0000         7.7600 
       17.1670         0.2040         0.0000         0.2770         3.1980 
      0.391856         2.1090         0.2060       -45.8750         1.0000 
        0.0000         0.2094
       4715.50 
       10.0000       0.071530       0.324480        10.1720      0.0302218 
    -0.0060000        54.8178       0.252950        54.8178         0.2005 
        0.2078       0.071530        25.2950        25.2950       0.252950 
       70.3910        72.3290         2.0868       986.6373       0.324480 
      0.376213         7.1530         0.0000         0.0000        11.0950 
       13.2270         0.2580         0.0000         0.7150         3.3887 
      0.380668         2.1110         0.1888       -43.9272         1.0000 
        0.0000         0.1617
       4716.00 
       10.0000       0.075260       0.328350        10.1570      0.0184924 
    -0.0060000        54.1670       0.253090        54.1670         0.2030 
        0.2120       0.075260        25.3090        25.3090       0.253090 
       74.2380      -999.2500         2.0244       786.7601       0.328350 
      0.358280         7.4785         0.0000         0.0480        11.9285 
       12.1860         0.4615         0.0670         0.6660         3.3870 
      0.364689         2.1160         0.2280       -41.6880         1.0000 
        0.0000         0.0935
       4716.50 
       10.0000       0.078990       0.332220        10.1288      0.0170521 
    -0.0077000        56.9462       0.253230        56.9462         0.2042 
        0.2162       0.078990        25.3230        25.3230       0.253230 
       73.1605        72.7420         2.0392       678.9099       0.332220 
      0.361592         7.8040         0.0000         0.0960        12.7620 
       11.1450         0.6650         0.1340         0.6170         3.3302 
      0.365748         2.1148         0.3007       -41.7192         1.0000 
        0.0000         0.0918
       4717.00 
       10.0000       0.092310       0.341110        10.0130      0.0254620 
    -0.0110000        58.1270       0.248800        58.1270         0.2050 
        0.2170       0.092310        24.8800        24.8800       0.248800 
       71.3680        70.6360         2.1620       640.5515       0.341110 
      0.395400         7.3590         1.2600         0.6120        11.7710 
       11.4550         1.3350         0.1580         0.1610         3.1160 
      0.391870         2.1090         0.2940       -39.3750         1.0000 
        0.0000         0.1697
       4717.50 
       10.0000       0.098280       0.344910         9.9572      0.0252268 
    -0.0125000        57.6790       0.246630        57.6790         0.2038 
        0.2157       0.098280        24.6630        24.6630       0.246630 
       70.8515        68.6920         2.1759       653.3596       0.344910 
      0.401990         5.1930         3.9200         0.7150         9.7630 
       13.6020         1.2460         0.0510         0.0000         3.0422 
      0.391892         2.1090         0.2370       -43.0833         1.0000 
        0.0000         0.1784
       4718.00 
       10.0000       0.097420       0.350950         9.9580      0.0252656 
    -0.0150000        57.6790       0.253530        57.6790         0.2030 
        0.2140       0.097420        25.3530        25.3530       0.253530 
       69.1980        66.8600         2.2072       695.0859       0.350950 
      0.407790         3.7790         5.7350         0.2290         8.0510 
       16.6960         0.6060         0.0000         0.0000         3.0880 
      0.392635         2.0990         0.2020       -46.6250         1.0000 
        0.0000         0.1776
       4718.50 
       10.0000       0.094100       0.361590        10.0122      0.0071104 
    -0.0167000        52.8240       0.267490        52.8240         0.2002 
        0.2093       0.094100        26.7490        26.7490       0.267490 
       66.4160        64.3500         2.0996       863.2809       0.361590 
      0.389592         4.2360         5.1620         0.0130         7.3780 
       18.8120         0.5600         0.0000         0.0000         2.9260 
      0.392049         2.1070         0.2263       -46.8647         1.0000 
        0.0000         0.0875
       4719.00 
       10.0000       0.091830       0.367110         9.9830      0.0042353 
    -0.0200000        51.8390       0.275280        51.8390         0.1960 
        0.2060       0.091830        27.5280        27.5280       0.275280 
       65.0100      -999.2500         2.0851      1032.5560       0.367110 
      0.390350         4.9555         4.1350         0.0935         7.4125 
       19.1305         0.9855         0.0000         0.0000         2.8410 
      0.392456         2.1020         0.2530       -48.6880         1.0000 
        0.0000         0.0726
       4719.50 
       10.0000       0.089560       0.372630         9.8498      0.0013285 
    -0.0223000        49.5183       0.283070        49.5183         0.1903 
        0.2002       0.089560        28.3070        28.3070       0.283070 
       63.3525        61.9020         2.0615      1367.9750       0.372630 
      0.389842         5.6750         3.1080         0.1740         7.4470 
       19.4490         1.4110         0.0000         0.0000         2.9588 
      0.393073         2.0950         0.2743       -50.0942         1.0000 
        0.0000         0.0538
       4720.00 
       10.0000       0.085540       0.381650         9.8190      0.0000036 
    -0.0240000        51.1800       0.296110        51.1800         0.1870 
        0.1960       0.085540        29.6110        29.6110       0.296110 
       62.0450        60.4810         2.0831      1602.1250       0.381650 
      0.392050         7.3630         0.8780         0.3130         7.4630 
       19.9560         2.1920         0.0000         0.0000         3.1580 
      0.393699         2.0750         0.2260       -51.5000         1.0000 
        0.0000         0.0325
       4720.50 
       10.0000       0.078910       0.382920         9.8047      0.0035161 
    -0.0250000        48.5095       0.304020        48.5095         0.1823 
        0.1902       0.078910        30.4020        30.4020       0.304020 
       59.8755        59.4900         2.0938      1927.2090       0.382920 
      0.389903         7.4890         0.0000         0.4010         7.8550 
       19.4020         3.1450         0.0000         0.0000         3.4377 
      0.406285         2.0537         0.1630       -52.4900         1.0000 
        0.0000         0.0218
