~Version Information Block
VERS .                  2.0:  CWLS LOG ASCII STANDARD - VERSION 2.0
WRAP .                  YES:  Multiple lines per depth step
~Well Information Block
#MNEM.UNIT        Data Type   Information
#---------- ----------------  -----------
STRT .FT            4000.00:  START DEPTH
STOP .FT            5000.00:  STOP DEPTH
STEP .FT               0.50:  STEP
NULL .              -999.25:  NULL VALUE
COMP .     PENNZOIL EXPLORATION & PRODUCTION COMPANY:  COMPANY
WELL .              EXAMPLE:  WELL
FLD  .     EUGENE ISLAND BLOCK 330:  FIELD
LOC  .     5150 FSL & 8006 FEL:  LOCATION
CTRY .                  USA:  COUNTRY
STAT .            LOUISIANA:  STATE
CNTY .             OFFSHORE:  COUNTY
SRVC .         PetCom, Inc.:  SERVICE COMPANY
DATE .     14-MAR-96 @ 10:58:58:  DATE
API  .                     :  API NUMBER
UWI  .                     :  UNIQUE WELL ID
~Curve Information Block
#MNEM.UNIT         API CODE   Curve Description
#---------- ----------------  -----------------
DEPTH.FT                   :  
BS   .IN                   :  10
BVI  .V/V                  :  MBVI/100
BVW  .V/V                  :  SW*MPHI/100
CALI .IN                   :  
CBW  .V/V                  :  Clay-Bound Water
DRHO .G/C3                 :  
DT   .USEC/F                 :  
FFI  .V/V                  :  MFFI/100
GR   .GAPI                 :  
ILD  .OHMM                 :  
ILM  .OHMM                 :  
MBVI .V/V                  :  MBVI/100
MFFI .%                  PU:  
MFFI .%                    :  MFFI/100
MFFI .V/V                  :  MFFI/100
MGR  .GAPI              CPS:  
MGR  .                     :  
MNA  .                     :  m* apparent,  valid in wet intervals for m* trend
MPERM.MD                 MD:  
MPHI .V/V                  :  MPHI/100
NPHI .V/V                  :  
P1   .%                  PU:  
P2   .%                  PU:  
P3   .%                  PU:  
P4   .%                  PU:  
P5   .%                  PU:  
P6   .%                  PU:  
P7   .%                  PU:  
P8   .%                  PU:  
PEF  .B/E                  :  
PHIX .V/V                  :  
RHOB .G/C3                 :  
RMLL .OHMM                 :  
SP   .MV                   :  
SW   .V/V                  :  
T2_DIST.MSEC                 :  NMR T2 DISTRIBUTION
VSH  .V/V                  :  Volume of Shale used in Analysis
~Other Information Block
~Ascii Log Data
# ...
       4588.00 
       10.0000       0.316600       0.212855        10.8050      0.0001000 
    -0.0120000        63.3150       0.039170        63.3150         0.6180 
        0.6430       0.316600         3.9170         3.9170       0.039170 
       83.3990        81.9540         2.9136         7.0060       0.355760 
      0.366080        21.1370         2.3320         8.1910         1.8310 
        0.0000         0.0000         0.0000         2.0850         3.6630 
      0.346881         2.1850         0.6790       -35.5630         0.5983 
        0.0000         0.0323
       4588.50 
       10.0000       0.326800       0.217076        10.4478      0.0001000 
    -0.0117000        63.8232       0.031780        63.8232         0.5942 
        0.6045       0.326800         3.1780         3.1780       0.031780 
       84.2780        83.1690         2.8333         5.7713       0.358570 
      0.351580        22.8010         0.5720         9.3070         1.0180 
        0.0000         0.0000         0.0000         2.1600         3.6357 
      0.337841         2.1777         0.6842       -34.9692         0.6054 
        0.0000         0.0000
       4589.00 
       10.0000       0.327490       0.220671        10.5120      0.0001000 
    -0.0100000        63.7390       0.024590        63.7390         0.5750 
        0.5820       0.327490         2.4590         2.4590       0.024590 
       84.3140        83.7750         2.8103         4.8769       0.352080 
      0.349380        22.3290         0.5840         9.8370         0.2580 
        0.0000         0.0000         0.0000         2.2010         3.6540 
      0.345838         2.1710         0.7350       -35.1250         0.6268 
        0.0000         0.0000
       4589.50 
       10.0000       0.320770       0.224855        10.5163      0.0001000 
    -0.0077000        62.1472       0.023750        62.1472         0.5538 
        0.5572       0.320770         2.3750         2.3750       0.023750 
       83.5975        83.9260         2.7709         4.5425       0.344520 
      0.350838        21.6920         0.8060         9.5790         0.2550 
        0.0000         0.0000         0.0000         2.1200         3.4227 
      0.338223         2.1760         0.8202       -34.5938         0.6527 
        0.0000         0.0197
       4590.00 
       10.0000       0.307240       0.227080        10.2880      0.0001000 
    -0.0110000        62.0580       0.030230        62.0580         0.5430 
        0.5430       0.307240         3.0230         3.0230       0.030230 
       83.3940        83.7540         2.7664         4.6060       0.337470 
      0.351280        20.8870         1.3700         8.4670         1.1420 
        0.0000         0.0000         0.0000         1.8810         3.2460 
      0.345842         2.1710         0.8460       -35.0630         0.6729 
        0.0000         0.0432
       4590.50 
       10.0000       0.301835       0.229351        10.1703      0.0001000 
    -0.0068000        60.0595       0.034310        60.0595         0.5323 
        0.5250       0.301835         3.4310         3.4310       0.034310 
       83.7605      -999.2500         2.7078         5.0017       0.336145 
      0.344837        20.5665         1.9650         7.6525         1.6580 
        0.0000         0.0000         0.0000         1.7730         3.3333 
      0.337782         2.1777         0.8237       -34.3542         0.6823 
        0.0000         0.0272
       4591.00 
       10.0000       0.296430       0.230065        10.1470      0.0001000 
    -0.0060000        60.3620       0.038390        60.3620         0.5290 
        0.5150       0.296430         3.8390         3.8390       0.038390 
       83.9260        83.5150         2.7343         5.2469       0.334820 
      0.351970        20.2460         2.5600         6.8380         2.1740 
        0.0000         0.0000         0.0000         1.6650         3.4100 
      0.338211         2.1760         0.8320       -34.2500         0.6871 
        0.0000         0.0536
       4591.50 
       10.0000       0.292310       0.229308        10.1720      0.0051023 
    -0.0050000        59.6583       0.043890        59.6583         0.5325 
        0.5067       0.292310         4.3890         4.3890       0.043890 
       83.1210        83.1450         2.8432         5.2972       0.336200 
      0.370043        19.9250         3.4820         5.8240         2.7990 
        0.0320         0.0120         0.0260         1.5210         4.0163 
      0.353257         2.1653         0.8688       -35.1983         0.6821 
        0.0000         0.1058
       4592.00 
       10.0000       0.288330       0.227710        10.1820      0.0103732 
    -0.0050000        59.3550       0.043050        59.3550         0.5400 
        0.5050       0.288330         4.3050         4.3050       0.043050 
       82.4240        82.6530         2.8747         5.2529       0.331380 
      0.368760        17.2600         6.1780         5.3950         2.2600 
        0.3690         0.3690         0.1750         1.1320         4.3630 
      0.353359         2.1570         0.9180       -34.6250         0.6872 
        0.0000         0.1168
       4592.50 
       10.0000       0.284690       0.222852        10.1627      0.0166559 
    -0.0043000        61.9962       0.035030        61.9962         0.5638 
        0.5150       0.284690         3.5030         3.5030       0.035030 
       82.1950        82.4260         2.8904         5.1908       0.319720 
      0.360482        13.7360         7.8020         6.9310         1.0740 
        0.5050         0.5460         0.3070         1.0710         4.3382 
      0.348277         2.1550         0.8977       -35.3438         0.6970 
        0.0000         0.1274
       4593.00 
       10.0000       0.283620       0.218218        10.1310      0.0238035 
    -0.0060000        62.4870       0.027450        62.4870         0.5880 
        0.5300       0.283620         2.7450         2.7450       0.027450 
       82.3910        82.2670         2.9368         5.4356       0.311070 
      0.358140        12.7460         5.3420        10.2740         0.4690 
        0.2250         0.2730         0.1860         1.5930         4.1990 
      0.348600         2.1500         0.8560       -35.1880         0.7015 
        0.0000         0.1471
       4593.50 
       10.0000       0.279215       0.210269        10.1357      0.0337073 
    -0.0085000        62.7592       0.028205        62.7592         0.6333 
        0.5715       0.279215         2.8205         2.8205       0.028205 
       82.5985      -999.2500         3.0816         6.1055       0.307420 
      0.371788        12.3560         4.5055        11.0595         0.5375 
        0.1380         0.1620         0.1365         1.8470         3.9628 
      0.363575         2.1450         0.7917       -34.9480         0.6840 
        0.0000         0.2011
       4594.00 
       10.0000       0.274810       0.203670        10.1590      0.0339751 
    -0.0110000        60.0350       0.028960        60.0350         0.6750 
        0.6140       0.274810         2.8960         2.8960       0.028960 
       81.8640        81.9160         3.1136         7.1677       0.303770 
      0.362630        11.9660         3.6690        11.8450         0.6060 
        0.0510         0.0510         0.0870         2.1010         3.8420 
      0.350381         2.1400         0.7800       -36.5630         0.6705 
        0.0000         0.1839
       4594.50 
       10.0000       0.247050       0.189248        10.1255      0.0522772 
    -0.0095000        60.1005       0.046450        60.1005         0.7818 
        0.7015       0.247050         4.6450         4.6450       0.046450 
       80.8165        81.2970         3.3657        10.8726       0.293500 
      0.387898         9.1980         5.4340        10.0730         1.4110 
        0.2350         0.3170         0.5190         2.1630         3.3183 
      0.381742         2.1428         0.7700       -36.0522         0.6448 
        0.0000         0.2950
